{"type": "FeatureCollection", "features": [{"type": "Feature", "geometry": {"type": "Point", "coordinates": [21.430007934570312, 41.99479675292969]}, "properties": {"name": "Центар рекорд-кон запад", "id": 185, "number": "1", "alb_name": "Qendër rekord"}}, {"type": "Feature", "geometry": {"type": "Point", "coordinates": [21.431503295898438, 41.99433898925781]}, "properties": {"name": "Центар рекорд-кон исток", "id": 186, "number": "2", "alb_name": "Qendër rekord"}}, {"type": "Feature", "geometry": {"type": "Point", "coordinates": [21.434616088867188, 41.99165344238281]}, "properties": {"name": "Градска болница", "id": 187, "number": "3", "alb_name": "Spitali i qytetit"}}, {"type": "Feature", "geometry": {"type": "Point", "coordinates": [21.434158325195312, 41.991851806640625]}, "properties": {"name": "Зелен пазар", "id": 188, "number": "4", "alb_name": "Tregu i gjelbërt"}}, {"type": "Feature", "geometry": {"type": "Point", "coordinates": [21.438385009765625, 41.99238586425781]}, "properties": {"name": "Југодрво-кон центар", "id": 189, "number": "5", "alb_name": "Jugodrvo"}}, {"type": "Feature", "geometry": {"type": "Point", "coordinates": [21.438840866088867, 41.99229049682617]}, "properties": {"name": "Југодрво олимписки базен", "id": 190, "number": "6", "alb_name": "Jugodrvo pishina olimpike"}}, {"type": "Feature", "geometry": {"type": "Point", "coordinates": [21.443756103515625, 41.99285888671875]}, "properties": {"name": "Банка на рм 2-кон ману", "id": 191, "number": "7", "alb_name": "Banka e republika e maqedonisë 2"}}, {"type": "Feature", "geometry": {"type": "Point", "coordinates": [21.44441032409668, 41.99245071411133]}, "properties": {"name": "Банка на рм 1-кон југодрво", "id": 192, "number": "8", "alb_name": "Banka e republika e maqedonisë 1"}}, {"type": "Feature", "geometry": {"type": "Point", "coordinates": [21.4422607421875, 41.99342346191406]}, "properties": {"name": "Веро џамбо", "id": 193, "number": "9", "alb_name": "Vero xhambo"}}, {"type": "Feature", "geometry": {"type": "Point", "coordinates": [21.446258544921875, 41.99127197265625]}, "properties": {"name": "Железничка станица-кон центар", "id": 194, "number": "10", "alb_name": "Stacioni hekurudhor"}}, {"type": "Feature", "geometry": {"type": "Point", "coordinates": [21.445980072021484, 41.991119384765625]}, "properties": {"name": "Железничка станица-кон аеродром", "id": 195, "number": "11", "alb_name": "Stacioni hekurudhor"}}, {"type": "Feature", "geometry": {"type": "Point", "coordinates": [21.450302124023438, 41.98884582519531]}, "properties": {"name": "Тц скопјанка-кон центар", "id": 196, "number": "12", "alb_name": "Tregtare skopjanka"}}, {"type": "Feature", "geometry": {"type": "Point", "coordinates": [21.449920654296875, 41.988739013671875]}, "properties": {"name": "Тц скопјанка-кон ново лисиче", "id": 197, "number": "13", "alb_name": "Tregtare skopjanka"}}, {"type": "Feature", "geometry": {"type": "Point", "coordinates": [21.453750610351562, 41.98844909667969]}, "properties": {"name": "Аеродром палма", "id": 198, "number": "14", "alb_name": "Aerodrom pallma"}}, {"type": "Feature", "geometry": {"type": "Point", "coordinates": [21.453094482421875, 41.98793029785156]}, "properties": {"name": "Аеродром тобако 2", "id": 199, "number": "15", "alb_name": "Aerodrom tobako 2"}}, {"type": "Feature", "geometry": {"type": "Point", "coordinates": [21.458343505859375, 41.98931884765625]}, "properties": {"name": "Тц три бисери-кон центар", "id": 200, "number": "16", "alb_name": "Tregtare tri biseri"}}, {"type": "Feature", "geometry": {"type": "Point", "coordinates": [21.4576416015625, 41.98893737792969]}, "properties": {"name": "Тц три бисери-кон ново лисиче", "id": 201, "number": "17", "alb_name": "Tregtare tri biseri"}}, {"type": "Feature", "geometry": {"type": "Point", "coordinates": [21.4637451171875, 41.98710632324219]}, "properties": {"name": "Мајчин дом-кон центар", "id": 202, "number": "18", "alb_name": "Majçin dom"}}, {"type": "Feature", "geometry": {"type": "Point", "coordinates": [21.463211059570312, 41.98698425292969]}, "properties": {"name": "Мајчин дом-кон ново лисиче", "id": 203, "number": "19", "alb_name": "Majçin dom"}}, {"type": "Feature", "geometry": {"type": "Point", "coordinates": [21.467208862304688, 41.98516845703125]}, "properties": {"name": "Тц капитол", "id": 204, "number": "20", "alb_name": "Tregtare kapitoll"}}, {"type": "Feature", "geometry": {"type": "Point", "coordinates": [21.466720581054688, 41.98500061035156]}, "properties": {"name": "Тц бисер", "id": 205, "number": "21", "alb_name": "Tregtare biser"}}, {"type": "Feature", "geometry": {"type": "Point", "coordinates": [21.469894409179688, 41.98365783691406]}, "properties": {"name": "Рударски институт-кон центар", "id": 206, "number": "22", "alb_name": "Instituti i xehëtarisë"}}, {"type": "Feature", "geometry": {"type": "Point", "coordinates": [21.469619750976562, 41.9833984375]}, "properties": {"name": "Рударски институт-кон ново лисиче", "id": 207, "number": "23", "alb_name": "Instituti i xehëtarisë"}}, {"type": "Feature", "geometry": {"type": "Point", "coordinates": [21.4730224609375, 41.98207092285156]}, "properties": {"name": "Ново лисиче пошта-кон центар", "id": 208, "number": "24", "alb_name": "Novo lisiçe posta"}}, {"type": "Feature", "geometry": {"type": "Point", "coordinates": [21.474151611328125, 41.981109619140625]}, "properties": {"name": "Ново лисиче пошта-кон т", "id": 209, "number": "25", "alb_name": "Lisiçe e re (novo lisiçe) posta"}}, {"type": "Feature", "geometry": {"type": "Point", "coordinates": [21.477798461914062, 41.979827880859375]}, "properties": {"name": "Ново лисиче 1-кон центар", "id": 210, "number": "26", "alb_name": "Lisiçe e re 1"}}, {"type": "Feature", "geometry": {"type": "Point", "coordinates": [21.476791381835938, 41.97990417480469]}, "properties": {"name": "Ново лисиче 1-кон т", "id": 211, "number": "27", "alb_name": "Lisiçe e re 1"}}, {"type": "Feature", "geometry": {"type": "Point", "coordinates": [21.48159408569336, 41.982791900634766]}, "properties": {"name": "Ново лисиче згради-кон центар", "id": 212, "number": "28", "alb_name": "Lisiçe e re ndërtesat"}}, {"type": "Feature", "geometry": {"type": "Point", "coordinates": [21.480804443359375, 41.9815673828125]}, "properties": {"name": "Ново лисиче згради-кон т", "id": 213, "number": "29", "alb_name": "Lisiçe e re ndërtesat"}}, {"type": "Feature", "geometry": {"type": "Point", "coordinates": [21.484630584716797, 41.98579025268555]}, "properties": {"name": "Ново лисиче т-почетна", "id": 214, "number": "30", "alb_name": "Lisiçe e re terminal"}}, {"type": "Feature", "geometry": {"type": "Point", "coordinates": [21.484146118164062, 41.985687255859375]}, "properties": {"name": "Ново лисиче т-крајна", "id": 215, "number": "31", "alb_name": "Lisiçe e re"}}, {"type": "Feature", "geometry": {"type": "Point", "coordinates": [21.480911254882812, 41.98649597167969]}, "properties": {"name": "Ново лисиче ффм-кон центар", "id": 216, "number": "32", "alb_name": "Lisiçe e re federata e futbollit e maqedonisë"}}, {"type": "Feature", "geometry": {"type": "Point", "coordinates": [21.48284912109375, 41.98590087890625]}, "properties": {"name": "Ново лисиче ффм-кон т", "id": 217, "number": "33", "alb_name": "Novo lisiçe federata e futbollit e maqedonisë"}}, {"type": "Feature", "geometry": {"type": "Point", "coordinates": [21.47665023803711, 41.988311767578125]}, "properties": {"name": "Парк аеродром-кон центар", "id": 218, "number": "34", "alb_name": "Parku aerodrom"}}, {"type": "Feature", "geometry": {"type": "Point", "coordinates": [21.47723388671875, 41.988311767578125]}, "properties": {"name": "Парк аеродром-кон т", "id": 219, "number": "35", "alb_name": "Parku aerodrom"}}, {"type": "Feature", "geometry": {"type": "Point", "coordinates": [21.471389770507812, 41.99034118652344]}, "properties": {"name": "Гп маврово-кон центар", "id": 220, "number": "36", "alb_name": "Ndërmarrja ndërtimore mavrovo"}}, {"type": "Feature", "geometry": {"type": "Point", "coordinates": [21.470306396484375, 41.9908447265625]}, "properties": {"name": "Гп маврово-кон т", "id": 221, "number": "37", "alb_name": "Ndërmarrja ndërtimore mavrovo"}}, {"type": "Feature", "geometry": {"type": "Point", "coordinates": [21.466461181640625, 41.992095947265625]}, "properties": {"name": "Сс јане сандански т-почетна", "id": 222, "number": "38", "alb_name": "Salla e sportit jane sandanski terminal"}}, {"type": "Feature", "geometry": {"type": "Point", "coordinates": [21.466659545898438, 41.9923095703125]}, "properties": {"name": "Сс јане сандански т-крајна", "id": 223, "number": "39", "alb_name": "Salla e sportit jane sandanski terminal"}}, {"type": "Feature", "geometry": {"type": "Point", "coordinates": [21.473358154296875, 41.98760986328125]}, "properties": {"name": "Бул.србија лукоил", "id": 224, "number": "40", "alb_name": "Bulevardi serbia lukoil"}}, {"type": "Feature", "geometry": {"type": "Point", "coordinates": [21.473617553710938, 41.98753356933594]}, "properties": {"name": "Бул.србија октан", "id": 225, "number": "41", "alb_name": "Bulevardi serbia oktan"}}, {"type": "Feature", "geometry": {"type": "Point", "coordinates": [21.470352172851562, 41.982025146484375]}, "properties": {"name": "Плоштад јане сандански-кон усје", "id": 226, "number": "42", "alb_name": "Sheshi jane sandanski"}}, {"type": "Feature", "geometry": {"type": "Point", "coordinates": [21.471817016601562, 41.98326110839844]}, "properties": {"name": "Плоштад јане сандански-кон автокомандаg", "id": 227, "number": "43", "alb_name": "Sheshi jane sandanski"}}, {"type": "Feature", "geometry": {"type": "Point", "coordinates": [21.463836669921875, 41.97669982910156]}, "properties": {"name": "Бул.србија крст", "id": 228, "number": "44", "alb_name": "Bulevardi serbia kryqi"}}, {"type": "Feature", "geometry": {"type": "Point", "coordinates": [21.465713500976562, 41.97796630859375]}, "properties": {"name": "Бул.србија макпетрол", "id": 229, "number": "45", "alb_name": "Bulevardi serbia makpetrol"}}, {"type": "Feature", "geometry": {"type": "Point", "coordinates": [21.461166381835938, 41.973052978515625]}, "properties": {"name": "Бул.србија усје", "id": 230, "number": "46", "alb_name": "Bulevardi serbia usje"}}, {"type": "Feature", "geometry": {"type": "Point", "coordinates": [21.443115234375, 41.989593505859375]}, "properties": {"name": "Меѓуградска автобуска-кон центар", "id": 231, "number": "47", "alb_name": "Stacioni i autobusave ndërurban"}}, {"type": "Feature", "geometry": {"type": "Point", "coordinates": [21.443145751953125, 41.98976135253906]}, "properties": {"name": "Меѓуградска автобуска-кон лисиче", "id": 232, "number": "48", "alb_name": "Stacioni i autobusave ndërurban"}}, {"type": "Feature", "geometry": {"type": "Point", "coordinates": [21.445039749145508, 41.99028015136719]}, "properties": {"name": "Транспортен центар т(21,22)", "id": 233, "number": "49", "alb_name": "Transportuese тerminal (21,22)"}}, {"type": "Feature", "geometry": {"type": "Point", "coordinates": [21.445037841796875, 41.99018859863281]}, "properties": {"name": "Транспортен центар т(41,65в)", "id": 234, "number": "50", "alb_name": "Transportuese тerminal (41,65в)"}}, {"type": "Feature", "geometry": {"type": "Point", "coordinates": [21.444808959960938, 41.99005126953125]}, "properties": {"name": "Транспортен центар т-приградски линии", "id": 235, "number": "51", "alb_name": "Transportuese тerminallinja periferike"}}, {"type": "Feature", "geometry": {"type": "Point", "coordinates": [21.444442749023438, 41.98677062988281]}, "properties": {"name": "Тутунски комбинат-кон центар", "id": 236, "number": "52", "alb_name": "Kombinati i duhanit"}}, {"type": "Feature", "geometry": {"type": "Point", "coordinates": [21.444290161132812, 41.986572265625]}, "properties": {"name": "Тутунски комбинат-кон лисиче", "id": 237, "number": "53", "alb_name": "Kombinati i duhanit"}}, {"type": "Feature", "geometry": {"type": "Point", "coordinates": [21.4486083984375, 41.984832763671875]}, "properties": {"name": "Општина аеродром", "id": 238, "number": "54", "alb_name": "Komuna aerodrom"}}, {"type": "Feature", "geometry": {"type": "Point", "coordinates": [21.4486083984375, 41.98455810546875]}, "properties": {"name": "Су димитар влахов", "id": 239, "number": "55", "alb_name": "Shkolla e mesme dimitar vllahov"}}, {"type": "Feature", "geometry": {"type": "Point", "coordinates": [21.449844360351562, 41.98406982421875]}, "properties": {"name": "Раде кончар", "id": 240, "number": "56", "alb_name": "Rade konçar"}}, {"type": "Feature", "geometry": {"type": "Point", "coordinates": [21.453277587890625, 41.982635498046875]}, "properties": {"name": "Раде кончар бензинска-кон центар", "id": 241, "number": "57", "alb_name": "Rade konçar pompa e benzinës"}}, {"type": "Feature", "geometry": {"type": "Point", "coordinates": [21.452392578125, 41.98277282714844]}, "properties": {"name": "Раде кончар бензинска-кон лисиче", "id": 242, "number": "58", "alb_name": "Rade konçar pompa e benzinës"}}, {"type": "Feature", "geometry": {"type": "Point", "coordinates": [21.457794189453125, 41.98057556152344]}, "properties": {"name": "Американ колеџ-кон центар", "id": 243, "number": "59", "alb_name": "Kolegji amerikan"}}, {"type": "Feature", "geometry": {"type": "Point", "coordinates": [21.456985473632812, 41.98057556152344]}, "properties": {"name": "Американ колеџ-кон лисиче", "id": 244, "number": "60", "alb_name": "Kolegji amerikan"}}, {"type": "Feature", "geometry": {"type": "Point", "coordinates": [21.46160888671875, 41.978759765625]}, "properties": {"name": "Су марија кири склодовска", "id": 245, "number": "61", "alb_name": "Shkolla e mesme marija kiri skllodovska"}}, {"type": "Feature", "geometry": {"type": "Point", "coordinates": [21.46148681640625, 41.97865295410156]}, "properties": {"name": "Су владо тасевски", "id": 246, "number": "62", "alb_name": "Shkolla e mesme vllado tasevski"}}, {"type": "Feature", "geometry": {"type": "Point", "coordinates": [21.466217041015625, 41.97660827636719]}, "properties": {"name": "Лисиче градинка-кон центар", "id": 247, "number": "63", "alb_name": "Lisiçe çerdhja"}}, {"type": "Feature", "geometry": {"type": "Point", "coordinates": [21.466567993164062, 41.9761962890625]}, "properties": {"name": "Лисиче градинка-кон горно лисиче", "id": 248, "number": "64", "alb_name": "Lisiçe çerdhja"}}, {"type": "Feature", "geometry": {"type": "Point", "coordinates": [21.471893310546875, 41.97395324707031]}, "properties": {"name": "Лисиче полициска станица-кон центар", "id": 249, "number": "65", "alb_name": "Lisiçe stacioni policor"}}, {"type": "Feature", "geometry": {"type": "Point", "coordinates": [21.471830368041992, 41.973690032958984]}, "properties": {"name": "Лисиче полициска станица-кон горно лисg", "id": 250, "number": "66", "alb_name": "Lisiçe stacioni policor"}}, {"type": "Feature", "geometry": {"type": "Point", "coordinates": [21.47700309753418, 41.97159957885742]}, "properties": {"name": "Лисиче-кон центар", "id": 251, "number": "67", "alb_name": "Lisiçe"}}, {"type": "Feature", "geometry": {"type": "Point", "coordinates": [21.476974487304688, 41.97137451171875]}, "properties": {"name": "Лисиче-кон горно лисиче", "id": 252, "number": "68", "alb_name": "Lisiçe"}}, {"type": "Feature", "geometry": {"type": "Point", "coordinates": [21.482421875, 41.97099304199219]}, "properties": {"name": "Ул.горноврановска-кон центар", "id": 253, "number": "69", "alb_name": "Rr.gornovranovska"}}, {"type": "Feature", "geometry": {"type": "Point", "coordinates": [21.482192993164062, 41.97093200683594]}, "properties": {"name": "Ул.горноврановска-кон горно лисиче", "id": 254, "number": "70", "alb_name": "Rr.gornovranovska"}}, {"type": "Feature", "geometry": {"type": "Point", "coordinates": [21.486400604248047, 41.9698486328125]}, "properties": {"name": "Оу гоце делчев-кон центар", "id": 255, "number": "71", "alb_name": "Shkolla fillore  goce dellçev"}}, {"type": "Feature", "geometry": {"type": "Point", "coordinates": [21.48626708984375, 41.96961975097656]}, "properties": {"name": "Оу гоце делчев-кон т", "id": 256, "number": "72", "alb_name": "Shkolla fillore  goce dellçev"}}, {"type": "Feature", "geometry": {"type": "Point", "coordinates": [21.489105224609375, 41.967864990234375]}, "properties": {"name": "Горно лисиче-кон центар", "id": 257, "number": "73", "alb_name": "Gorno lisiçe"}}, {"type": "Feature", "geometry": {"type": "Point", "coordinates": [21.488937377929688, 41.96781921386719]}, "properties": {"name": "Горно лисиче-кон т", "id": 258, "number": "74", "alb_name": "Gorno lisiçe"}}, {"type": "Feature", "geometry": {"type": "Point", "coordinates": [21.486568450927734, 41.96605682373047]}, "properties": {"name": "Трафостаница ул лисец-кон центар", "id": 259, "number": "75", "alb_name": "Trafostacioni rr.lisec"}}, {"type": "Feature", "geometry": {"type": "Point", "coordinates": [21.486465454101562, 41.9661865234375]}, "properties": {"name": "Трафостаница ул лисец-кон т", "id": 260, "number": "76", "alb_name": "Trafostacioni rr.lisec"}}, {"type": "Feature", "geometry": {"type": "Point", "coordinates": [21.484039306640625, 41.9644775390625]}, "properties": {"name": "Хемтекс т-почетна", "id": 261, "number": "77", "alb_name": "Hemteks terminal"}}, {"type": "Feature", "geometry": {"type": "Point", "coordinates": [21.48394775390625, 41.96452331542969]}, "properties": {"name": "Хемтекс т-крајна", "id": 262, "number": "78", "alb_name": "Hemteks т"}}, {"type": "Feature", "geometry": {"type": "Point", "coordinates": [21.478179931640625, 41.97410583496094]}, "properties": {"name": "Островска кривина-кон центар", "id": 263, "number": "79", "alb_name": "Ostrovska kthesa"}}, {"type": "Feature", "geometry": {"type": "Point", "coordinates": [21.4783935546875, 41.97406005859375]}, "properties": {"name": "Островска кривина-кон т", "id": 264, "number": "80", "alb_name": "Ostrovska kthesa"}}, {"type": "Feature", "geometry": {"type": "Point", "coordinates": [21.47991943359375, 41.975006103515625]}, "properties": {"name": "Канал лисиче-кон центар", "id": 265, "number": "81", "alb_name": "Kanali lisiçe"}}, {"type": "Feature", "geometry": {"type": "Point", "coordinates": [21.47998046875, 41.974884033203125]}, "properties": {"name": "Канал лисиче-кон островска", "id": 266, "number": "82", "alb_name": "Kanali lisiçe"}}, {"type": "Feature", "geometry": {"type": "Point", "coordinates": [21.48333740234375, 41.97706604003906]}, "properties": {"name": "Островска 1-кон центар", "id": 267, "number": "83", "alb_name": "Ostrovskа 1"}}, {"type": "Feature", "geometry": {"type": "Point", "coordinates": [21.484039306640625, 41.977386474609375]}, "properties": {"name": "Островска  1-кон т", "id": 268, "number": "84", "alb_name": "Ostrovska 1"}}, {"type": "Feature", "geometry": {"type": "Point", "coordinates": [21.4881591796875, 41.9800910949707]}, "properties": {"name": "Островска 2-кон центар", "id": 269, "number": "85", "alb_name": "Ostrovska 2"}}, {"type": "Feature", "geometry": {"type": "Point", "coordinates": [21.4884033203125, 41.98008728027344]}, "properties": {"name": "Островска 2-кон т", "id": 270, "number": "86", "alb_name": "Ostrovska 2"}}, {"type": "Feature", "geometry": {"type": "Point", "coordinates": [21.49334716796875, 41.983062744140625]}, "properties": {"name": "Островска т-почетна", "id": 271, "number": "87", "alb_name": "Ostrovska т"}}, {"type": "Feature", "geometry": {"type": "Point", "coordinates": [21.493560791015625, 41.9830322265625]}, "properties": {"name": "Островска т-крајна", "id": 272, "number": "88", "alb_name": "Ostrovska т"}}, {"type": "Feature", "geometry": {"type": "Point", "coordinates": [21.485061645507812, 41.97039794921875]}, "properties": {"name": "Горно лисиче канал-кон центар", "id": 273, "number": "89", "alb_name": "Lisiçe e epërme kanali"}}, {"type": "Feature", "geometry": {"type": "Point", "coordinates": [21.48516845703125, 41.97053527832031]}, "properties": {"name": "Горно лисиче канал-кон вардарска", "id": 274, "number": "90", "alb_name": "Lisiçe e epërme kanali"}}, {"type": "Feature", "geometry": {"type": "Point", "coordinates": [21.485305786132812, 41.97270202636719]}, "properties": {"name": "Вардарска 1-кон центар", "id": 275, "number": "91", "alb_name": "Vardarska 1"}}, {"type": "Feature", "geometry": {"type": "Point", "coordinates": [21.485458374023438, 41.97264099121094]}, "properties": {"name": "Вардарска 1-кон т", "id": 276, "number": "92", "alb_name": "Vardarska 1"}}, {"type": "Feature", "geometry": {"type": "Point", "coordinates": [21.487823486328125, 41.974090576171875]}, "properties": {"name": "Вардарска 2-кон центар", "id": 277, "number": "93", "alb_name": "Vardarska 2"}}, {"type": "Feature", "geometry": {"type": "Point", "coordinates": [21.487878799438477, 41.974021911621094]}, "properties": {"name": "Вардарска 2-кон т", "id": 278, "number": "94", "alb_name": "Vardarska 2"}}, {"type": "Feature", "geometry": {"type": "Point", "coordinates": [21.49221420288086, 41.976436614990234]}, "properties": {"name": "Вардарска т-почетна", "id": 279, "number": "95", "alb_name": "Vardarska т"}}, {"type": "Feature", "geometry": {"type": "Point", "coordinates": [21.492294311523438, 41.97639465332031]}, "properties": {"name": "Вардарска т-крајна", "id": 280, "number": "96", "alb_name": "Vardarska т"}}, {"type": "Feature", "geometry": {"type": "Point", "coordinates": [21.495132446289062, 41.96495056152344]}, "properties": {"name": "Горно лисиче црква-кон центар", "id": 281, "number": "97", "alb_name": "Lisiçe e epërme kisha"}}, {"type": "Feature", "geometry": {"type": "Point", "coordinates": [21.4951171875, 41.964813232421875]}, "properties": {"name": "Горно лисиче црква-кон долно лисиче", "id": 282, "number": "98", "alb_name": "Lisiçe e epërme kisha"}}, {"type": "Feature", "geometry": {"type": "Point", "coordinates": [21.50511360168457, 41.962276458740234]}, "properties": {"name": "Горно лисиче млин-кон центар", "id": 283, "number": "99", "alb_name": "Lisiçe e epërme mulliri"}}, {"type": "Feature", "geometry": {"type": "Point", "coordinates": [21.504974365234375, 41.962188720703125]}, "properties": {"name": "Горно лисиче млин-кон долно лисиче", "id": 284, "number": "100", "alb_name": "Lisiçe e epërme mulliri"}}, {"type": "Feature", "geometry": {"type": "Point", "coordinates": [21.509841918945312, 41.96095275878906]}, "properties": {"name": "Горно лисиче копринт-кон центар", "id": 285, "number": "101", "alb_name": "Lisiçe e epërme koprint"}}, {"type": "Feature", "geometry": {"type": "Point", "coordinates": [21.50946044921875, 41.9609375]}, "properties": {"name": "Горно лисиче копринт-кон долно лисиче", "id": 286, "number": "102", "alb_name": "Lisiçe e epërme koprint"}}, {"type": "Feature", "geometry": {"type": "Point", "coordinates": [21.524978637695312, 41.95799255371094]}, "properties": {"name": "Долно лисиче ореви-кон центар", "id": 287, "number": "103", "alb_name": "Lisiçe e poshtme arrat"}}, {"type": "Feature", "geometry": {"type": "Point", "coordinates": [21.524688720703125, 41.95794677734375]}, "properties": {"name": "Долно лисиче ореви-кон т", "id": 288, "number": "104", "alb_name": "Lisiçe e poshtme arfrat"}}, {"type": "Feature", "geometry": {"type": "Point", "coordinates": [21.52960205078125, 41.95732116699219]}, "properties": {"name": "Долно лисиче пред надвозник-кон центарg", "id": 289, "number": "105", "alb_name": "Lisiçe e poshtme para mbikalimit"}}, {"type": "Feature", "geometry": {"type": "Point", "coordinates": [21.529495239257812, 41.95721435546875]}, "properties": {"name": "Долно лисиче пред надвозник-кон т", "id": 290, "number": "106", "alb_name": "Lisiçe e poshtme para mbikalimit"}}, {"type": "Feature", "geometry": {"type": "Point", "coordinates": [21.53424072265625, 41.95635986328125]}, "properties": {"name": "Долно лисиче после надвозник-кон центар", "id": 291, "number": "107", "alb_name": "Lisiçe e poshtme pas mbikalimit"}}, {"type": "Feature", "geometry": {"type": "Point", "coordinates": [21.534439086914062, 41.95628356933594]}, "properties": {"name": "Долно лисиче после надвозник-кон т", "id": 292, "number": "108", "alb_name": "Lisiçe e poshtme pas mbikalimit"}}, {"type": "Feature", "geometry": {"type": "Point", "coordinates": [21.538307189941406, 41.9587516784668]}, "properties": {"name": "Долно лисиче т-кон центар", "id": 293, "number": "109", "alb_name": "Lisiçe e poshtme т"}}, {"type": "Feature", "geometry": {"type": "Point", "coordinates": [21.53804588317871, 41.958763122558594]}, "properties": {"name": "Долно лисиче т-кон чатал", "id": 294, "number": "110", "alb_name": "Lisiçe e poshtme т"}}, {"type": "Feature", "geometry": {"type": "Point", "coordinates": [21.537063598632812, 41.9552001953125]}, "properties": {"name": "Пекара орешка-кон центар", "id": 295, "number": "111", "alb_name": "Furra oreshka"}}, {"type": "Feature", "geometry": {"type": "Point", "coordinates": [21.537025451660156, 41.95531463623047]}, "properties": {"name": "Пекара орешка-кон т", "id": 296, "number": "112", "alb_name": "Furra oreshka"}}, {"type": "Feature", "geometry": {"type": "Point", "coordinates": [21.535734176635742, 41.9525260925293]}, "properties": {"name": "Долно лисиче чатал т-почетна", "id": 297, "number": "113", "alb_name": "Lisiçe e poshtme çatall"}}, {"type": "Feature", "geometry": {"type": "Point", "coordinates": [21.536115646362305, 41.95252990722656]}, "properties": {"name": "Долно лисиче чатал т-крајна", "id": 298, "number": "114", "alb_name": "Lisiçe e poshtme çatall"}}, {"type": "Feature", "geometry": {"type": "Point", "coordinates": [21.4361572265625, 41.98902893066406]}, "properties": {"name": "Осигурување македонија", "id": 299, "number": "115", "alb_name": "Shën  sigurimeve makedonija"}}, {"type": "Feature", "geometry": {"type": "Point", "coordinates": [21.435914993286133, 41.98939895629883]}, "properties": {"name": "Билна аптека", "id": 300, "number": "116", "alb_name": "Farmaci botanike"}}, {"type": "Feature", "geometry": {"type": "Point", "coordinates": [21.438095092773438, 41.985382080078125]}, "properties": {"name": "Чешма кисела вода цветан димов", "id": 301, "number": "117", "alb_name": "Çeshmja kisella vodë cvetan dimov"}}, {"type": "Feature", "geometry": {"type": "Point", "coordinates": [21.439300537109375, 41.98329162597656]}, "properties": {"name": "Чешма кисела вода макси д", "id": 302, "number": "118", "alb_name": "Çeshmja kisella vodë maksi d"}}, {"type": "Feature", "geometry": {"type": "Point", "coordinates": [21.441848754882812, 41.98080062866211]}, "properties": {"name": "Општина кисела вода", "id": 303, "number": "119", "alb_name": "Komuna kisella vodë"}}, {"type": "Feature", "geometry": {"type": "Point", "coordinates": [21.445636749267578, 41.97914505004883]}, "properties": {"name": "Кисела вода тинекс-кон центар", "id": 304, "number": "120", "alb_name": "Kisella vodë tineks"}}, {"type": "Feature", "geometry": {"type": "Point", "coordinates": [21.443435668945312, 41.97984313964844]}, "properties": {"name": "Кисела вода згради-кон драчево", "id": 305, "number": "121", "alb_name": "Kisella vodë ndërtesat"}}, {"type": "Feature", "geometry": {"type": "Point", "coordinates": [21.452682495117188, 41.975738525390625]}, "properties": {"name": "11 октомври супер тинекс-кон центар", "id": 306, "number": "122", "alb_name": "11 tetori super tineks"}}, {"type": "Feature", "geometry": {"type": "Point", "coordinates": [21.453489303588867, 41.97515869140625]}, "properties": {"name": "11 октомври супер тинекс-кон драчево", "id": 307, "number": "123", "alb_name": "11 tetori super tineks"}}, {"type": "Feature", "geometry": {"type": "Point", "coordinates": [21.454360961914062, 41.97596740722656]}, "properties": {"name": "11 октомври т", "id": 308, "number": "124", "alb_name": "11 tetori тerminal"}}, {"type": "Feature", "geometry": {"type": "Point", "coordinates": [21.458194732666016, 41.973175048828125]}, "properties": {"name": "Цементара-кон центар", "id": 309, "number": "125", "alb_name": "Çimentorja"}}, {"type": "Feature", "geometry": {"type": "Point", "coordinates": [21.459266662597656, 41.972530364990234]}, "properties": {"name": "Цементара-кон драчево", "id": 310, "number": "126", "alb_name": "Çimentorja"}}, {"type": "Feature", "geometry": {"type": "Point", "coordinates": [21.465423583984375, 41.96977233886719]}, "properties": {"name": "Индустриски колосек-кон центар", "id": 311, "number": "127", "alb_name": "Binari industrial"}}, {"type": "Feature", "geometry": {"type": "Point", "coordinates": [21.466754913330078, 41.9690055847168]}, "properties": {"name": "Индустриски колосек-кон драчево", "id": 312, "number": "128", "alb_name": "Binari industrial"}}, {"type": "Feature", "geometry": {"type": "Point", "coordinates": [21.474761962890625, 41.96525573730469]}, "properties": {"name": "Стаклара-кон центар", "id": 313, "number": "129", "alb_name": "Fabrika e qelqit"}}, {"type": "Feature", "geometry": {"type": "Point", "coordinates": [21.476455688476562, 41.964385986328125]}, "properties": {"name": "Стаклара-кон драчево", "id": 314, "number": "130", "alb_name": "Fabrika e qelqit"}}, {"type": "Feature", "geometry": {"type": "Point", "coordinates": [21.484954833984375, 41.958038330078125]}, "properties": {"name": "Охис-кон центар", "id": 315, "number": "131", "alb_name": "Ohis"}}, {"type": "Feature", "geometry": {"type": "Point", "coordinates": [21.483978271484375, 41.95880126953125]}, "properties": {"name": "Охис-кон драчево", "id": 316, "number": "132", "alb_name": "Ohis"}}, {"type": "Feature", "geometry": {"type": "Point", "coordinates": [21.487319946289062, 41.95564270019531]}, "properties": {"name": "Пинтија-кон центар", "id": 317, "number": "133", "alb_name": "Pintija"}}, {"type": "Feature", "geometry": {"type": "Point", "coordinates": [21.487838745117188, 41.95489501953125]}, "properties": {"name": "Пинтија-кон драчево", "id": 318, "number": "134", "alb_name": "Pintija"}}, {"type": "Feature", "geometry": {"type": "Point", "coordinates": [21.49178123474121, 41.951499938964844]}, "properties": {"name": "Пекара ваташа-кон центар", "id": 319, "number": "135", "alb_name": "Furra vatasha"}}, {"type": "Feature", "geometry": {"type": "Point", "coordinates": [21.491485595703125, 41.95153045654297]}, "properties": {"name": "Пекара ваташа-кон драчево", "id": 320, "number": "136", "alb_name": "Furra vatasha"}}, {"type": "Feature", "geometry": {"type": "Point", "coordinates": [21.494415283203125, 41.94779968261719]}, "properties": {"name": "Пинтија трафостаница-кон центар", "id": 321, "number": "137", "alb_name": "Pintija trafostacioni"}}, {"type": "Feature", "geometry": {"type": "Point", "coordinates": [21.493988037109375, 41.94801330566406]}, "properties": {"name": "Пинтија трафостаница-кон драчево", "id": 322, "number": "138", "alb_name": "Pintija trafostacioni"}}, {"type": "Feature", "geometry": {"type": "Point", "coordinates": [21.496337890625, 41.945770263671875]}, "properties": {"name": "Технокооп-кон центар", "id": 323, "number": "139", "alb_name": "Tehnokoop"}}, {"type": "Feature", "geometry": {"type": "Point", "coordinates": [21.496490478515625, 41.94525146484375]}, "properties": {"name": "Технокооп-кон драчево", "id": 324, "number": "140", "alb_name": "Tehnokoop"}}, {"type": "Feature", "geometry": {"type": "Point", "coordinates": [21.499465942382812, 41.94024658203125]}, "properties": {"name": "Маркова река мост-кон центар", "id": 325, "number": "141", "alb_name": "Markova reka ura"}}, {"type": "Feature", "geometry": {"type": "Point", "coordinates": [21.498779296875, 41.940399169921875]}, "properties": {"name": "Маркова река мост-кон драчево", "id": 326, "number": "142", "alb_name": "Markova reka ura"}}, {"type": "Feature", "geometry": {"type": "Point", "coordinates": [21.509119033813477, 41.93817901611328]}, "properties": {"name": "Драчево тополи-кон центар", "id": 327, "number": "143", "alb_name": "Draçevë plepat"}}, {"type": "Feature", "geometry": {"type": "Point", "coordinates": [21.50853157043457, 41.93830108642578]}, "properties": {"name": "Драчево тополи-кон т", "id": 328, "number": "144", "alb_name": "Draçevë plepat"}}, {"type": "Feature", "geometry": {"type": "Point", "coordinates": [21.51192283630371, 41.94078826904297]}, "properties": {"name": "Драчево градинка-кон центар", "id": 329, "number": "145", "alb_name": "Draçevë çerdhja"}}, {"type": "Feature", "geometry": {"type": "Point", "coordinates": [21.511018753051758, 41.94062805175781]}, "properties": {"name": "Драчево градинка-кон т", "id": 330, "number": "146", "alb_name": "Draçevë çerdhja"}}, {"type": "Feature", "geometry": {"type": "Point", "coordinates": [21.516036987304688, 41.93943786621094]}, "properties": {"name": "Драчево пазар-кон центар", "id": 331, "number": "147", "alb_name": "Draçevë pazari"}}, {"type": "Feature", "geometry": {"type": "Point", "coordinates": [21.51507568359375, 41.939605712890625]}, "properties": {"name": "Драчево пазар-кон т", "id": 332, "number": "148", "alb_name": "Draçevë pazari"}}, {"type": "Feature", "geometry": {"type": "Point", "coordinates": [21.522075653076172, 41.93730926513672]}, "properties": {"name": "Драчево 1-кон центар", "id": 333, "number": "149", "alb_name": "Draçevë  1"}}, {"type": "Feature", "geometry": {"type": "Point", "coordinates": [21.521638870239258, 41.93746566772461]}, "properties": {"name": "Драчево 1-кон т", "id": 334, "number": "150", "alb_name": "Draçevë  1"}}, {"type": "Feature", "geometry": {"type": "Point", "coordinates": [21.52396583557129, 41.93994903564453]}, "properties": {"name": "Драчево 2-кон центар", "id": 335, "number": "151", "alb_name": "Draçevë  2"}}, {"type": "Feature", "geometry": {"type": "Point", "coordinates": [21.524011611938477, 41.9399299621582]}, "properties": {"name": "Драчево 2-кон т", "id": 336, "number": "152", "alb_name": "Draçevë 2"}}, {"type": "Feature", "geometry": {"type": "Point", "coordinates": [21.527803421020508, 41.940101623535156]}, "properties": {"name": "Драчево игралиште-кон центар", "id": 337, "number": "153", "alb_name": "Draçevë fushë sporti"}}, {"type": "Feature", "geometry": {"type": "Point", "coordinates": [21.527910232543945, 41.94013977050781]}, "properties": {"name": "Драчево игралиште-кон т", "id": 338, "number": "154", "alb_name": "Draçevë fushë sporti"}}, {"type": "Feature", "geometry": {"type": "Point", "coordinates": [21.532852172851562, 41.93914794921875]}, "properties": {"name": "Драчево железничка станица т", "id": 339, "number": "155", "alb_name": "Draçevë stacioni hekurudhor тerminal"}}, {"type": "Feature", "geometry": {"type": "Point", "coordinates": [21.521148681640625, 41.93278503417969]}, "properties": {"name": "С.драчево сред село-кон центар", "id": 340, "number": "156", "alb_name": "Fshat draçevë qendër e fshatit"}}, {"type": "Feature", "geometry": {"type": "Point", "coordinates": [21.52117919921875, 41.93255615234375]}, "properties": {"name": "С.драчево сред село-кон зелениково", "id": 341, "number": "157", "alb_name": "Fshat draçevë qendër e fshatit"}}, {"type": "Feature", "geometry": {"type": "Point", "coordinates": [21.524105072021484, 41.931854248046875]}, "properties": {"name": "С.драчево т-почетна", "id": 342, "number": "158", "alb_name": "Fshat draçevë тerminal"}}, {"type": "Feature", "geometry": {"type": "Point", "coordinates": [21.52398681640625, 41.93178939819336]}, "properties": {"name": "С.драчево т-крајна", "id": 343, "number": "159", "alb_name": "Fshat draçevë тerminal"}}, {"type": "Feature", "geometry": {"type": "Point", "coordinates": [21.46563720703125, 41.9693603515625]}, "properties": {"name": "Пат за усје-кон т", "id": 344, "number": "160", "alb_name": "Rruga për usje"}}, {"type": "Feature", "geometry": {"type": "Point", "coordinates": [21.462738037109375, 41.96733093261719]}, "properties": {"name": "Усје вуле-кон центар", "id": 345, "number": "161", "alb_name": "Usje vulle"}}, {"type": "Feature", "geometry": {"type": "Point", "coordinates": [21.46265411376953, 41.96757888793945]}, "properties": {"name": "Усје вуле-кон т", "id": 346, "number": "162", "alb_name": "Usje vulle"}}, {"type": "Feature", "geometry": {"type": "Point", "coordinates": [21.461868286132812, 41.965187072753906]}, "properties": {"name": "Усје мост-кон центар", "id": 347, "number": "163", "alb_name": "Usje ura"}}, {"type": "Feature", "geometry": {"type": "Point", "coordinates": [21.461814880371094, 41.96531295776367]}, "properties": {"name": "Усје мост-кон т", "id": 348, "number": "164", "alb_name": "Usje ura"}}, {"type": "Feature", "geometry": {"type": "Point", "coordinates": [21.4602108001709, 41.9643669128418]}, "properties": {"name": "Усје 1-кон центар", "id": 349, "number": "165", "alb_name": "Usje 1"}}, {"type": "Feature", "geometry": {"type": "Point", "coordinates": [21.460102081298828, 41.964324951171875]}, "properties": {"name": "Усје 1-кон т", "id": 350, "number": "166", "alb_name": "Usje 1"}}, {"type": "Feature", "geometry": {"type": "Point", "coordinates": [21.459396362304688, 41.9622802734375]}, "properties": {"name": "Усје 2-кон центар", "id": 351, "number": "167", "alb_name": "Usje 2"}}, {"type": "Feature", "geometry": {"type": "Point", "coordinates": [21.45924186706543, 41.962257385253906]}, "properties": {"name": "Усје 2-кон т", "id": 352, "number": "168", "alb_name": "Usje 2"}}, {"type": "Feature", "geometry": {"type": "Point", "coordinates": [21.458370208740234, 41.95867919921875]}, "properties": {"name": "Усје т", "id": 353, "number": "169", "alb_name": "Usje тerminal"}}, {"type": "Feature", "geometry": {"type": "Point", "coordinates": [21.445388793945312, 41.97787857055664]}, "properties": {"name": "Сс расадник-кон центар", "id": 354, "number": "170", "alb_name": "Salla e sportit rasadnik"}}, {"type": "Feature", "geometry": {"type": "Point", "coordinates": [21.445030212402344, 41.977867126464844]}, "properties": {"name": "Оу кирил пејчиновиќ-кон кисела вода", "id": 355, "number": "171", "alb_name": "Shkolla fillore  kirill pejçinoviq"}}, {"type": "Feature", "geometry": {"type": "Point", "coordinates": [21.433151245117188, 41.98677062988281]}, "properties": {"name": "Оу кузман јосифоски питу-кон центар", "id": 356, "number": "172", "alb_name": "Shkolla fillore  kuzman josifovski pitu"}}, {"type": "Feature", "geometry": {"type": "Point", "coordinates": [21.433177947998047, 41.986263275146484]}, "properties": {"name": "Оу кузман јосифоски питу-кон кисела вода", "id": 357, "number": "173", "alb_name": "Shkolla fillore  kuzman josifovski pitu"}}, {"type": "Feature", "geometry": {"type": "Point", "coordinates": [21.435775756835938, 41.98103332519531]}, "properties": {"name": "Шампионче-кон центар", "id": 358, "number": "174", "alb_name": "Shampionçe"}}, {"type": "Feature", "geometry": {"type": "Point", "coordinates": [21.435073852539062, 41.981956481933594]}, "properties": {"name": "Шампионче-кон кисела вода", "id": 359, "number": "175", "alb_name": "Shampionçe"}}, {"type": "Feature", "geometry": {"type": "Point", "coordinates": [21.438308715820312, 41.976165771484375]}, "properties": {"name": "Кисела вода жито маркет", "id": 360, "number": "176", "alb_name": "Kisella vodë zhito market"}}, {"type": "Feature", "geometry": {"type": "Point", "coordinates": [21.437591552734375, 41.9771728515625]}, "properties": {"name": "Кисела вода пржино", "id": 361, "number": "177", "alb_name": "Kisella vodë przhino"}}, {"type": "Feature", "geometry": {"type": "Point", "coordinates": [21.443832397460938, 41.97569274902344]}, "properties": {"name": "Дом на слепи-кон центар", "id": 362, "number": "178", "alb_name": "Shtëpia e të verbëve"}}, {"type": "Feature", "geometry": {"type": "Point", "coordinates": [21.443008422851562, 41.97654724121094]}, "properties": {"name": "Дом на слепи-кон сопиште", "id": 363, "number": "179", "alb_name": "Shtëpia e të verbëve"}}, {"type": "Feature", "geometry": {"type": "Point", "coordinates": [21.44532012939453, 41.971405029296875]}, "properties": {"name": "Ф-ка мирка гинова", "id": 364, "number": "180", "alb_name": "Fabrika mirka ginova"}}, {"type": "Feature", "geometry": {"type": "Point", "coordinates": [21.444955825805664, 41.97189712524414]}, "properties": {"name": "Оу круме кепески", "id": 365, "number": "181", "alb_name": "Shkolla fillore  krume kepeski"}}, {"type": "Feature", "geometry": {"type": "Point", "coordinates": [21.44842529296875, 41.96937561035156]}, "properties": {"name": "Кисела вода т-почетна", "id": 366, "number": "182", "alb_name": "Kisella vodë тerminal"}}, {"type": "Feature", "geometry": {"type": "Point", "coordinates": [21.448440551757812, 41.96919250488281]}, "properties": {"name": "Кисела вода т-крајна", "id": 367, "number": "183", "alb_name": "Kisella vodë тerminal"}}, {"type": "Feature", "geometry": {"type": "Point", "coordinates": [21.448537826538086, 41.96527862548828]}, "properties": {"name": "Подрачно оу круме кепески-кон кисела вg", "id": 368, "number": "184", "alb_name": "Shkolla fillore  rajonale krume kepeski"}}, {"type": "Feature", "geometry": {"type": "Point", "coordinates": [21.44843292236328, 41.96518325805664]}, "properties": {"name": "Подрачно оу круме кепески-кон сопиште", "id": 369, "number": "185", "alb_name": "Shkolla fillore  rajonale krume kepeski"}}, {"type": "Feature", "geometry": {"type": "Point", "coordinates": [21.449935913085938, 41.96238708496094]}, "properties": {"name": "Припор крстосница-кон кисела вода", "id": 370, "number": "186", "alb_name": "Pripor udhëkryqi"}}, {"type": "Feature", "geometry": {"type": "Point", "coordinates": [21.449798583984375, 41.962646484375]}, "properties": {"name": "Припор крстосница-кон сопиште", "id": 371, "number": "187", "alb_name": "Pripor udhëkryqi"}}, {"type": "Feature", "geometry": {"type": "Point", "coordinates": [21.447921752929688, 41.959495544433594]}, "properties": {"name": "Припор згради-кон кисела вода", "id": 372, "number": "188", "alb_name": "Pripor ndërtesat"}}, {"type": "Feature", "geometry": {"type": "Point", "coordinates": [21.447214126586914, 41.95902633666992]}, "properties": {"name": "Припор згради-кон сопиште", "id": 373, "number": "189", "alb_name": "Pripor ndërtesat"}}, {"type": "Feature", "geometry": {"type": "Point", "coordinates": [21.443328857421875, 41.958648681640625]}, "properties": {"name": "Припор т-почетна", "id": 374, "number": "190", "alb_name": "Pripor тerminal"}}, {"type": "Feature", "geometry": {"type": "Point", "coordinates": [21.443832397460938, 41.95891571044922]}, "properties": {"name": "Припор т-крајна", "id": 375, "number": "191", "alb_name": "Pripor тerminal"}}, {"type": "Feature", "geometry": {"type": "Point", "coordinates": [21.438283920288086, 41.95753479003906]}, "properties": {"name": "Сопиште давидоф-кон кисела вода", "id": 376, "number": "192", "alb_name": "Sopishtë davidof"}}, {"type": "Feature", "geometry": {"type": "Point", "coordinates": [21.437255859375, 41.957950592041016]}, "properties": {"name": "Сопиште давидоф-кон добри дол", "id": 377, "number": "193", "alb_name": "Sopishtë davidof"}}, {"type": "Feature", "geometry": {"type": "Point", "coordinates": [21.432844161987305, 41.9560432434082]}, "properties": {"name": "Сопиште детско игралиште-кон кисела воg", "id": 378, "number": "194", "alb_name": "Sopishtë fusha s.për fëmijë"}}, {"type": "Feature", "geometry": {"type": "Point", "coordinates": [21.432830810546875, 41.95619583129883]}, "properties": {"name": "Сопиште детско игралиште-кон добри долg", "id": 379, "number": "195", "alb_name": "Sopishtë fusha s.për fëmijë"}}, {"type": "Feature", "geometry": {"type": "Point", "coordinates": [21.429229736328125, 41.955230712890625]}, "properties": {"name": "Сопиште мост-кон кисела вода", "id": 380, "number": "196", "alb_name": "Sopishtë ura"}}, {"type": "Feature", "geometry": {"type": "Point", "coordinates": [21.429000854492188, 41.95518493652344]}, "properties": {"name": "Сопиште мост-кон добри дол", "id": 381, "number": "197", "alb_name": "Sopishtë ura"}}, {"type": "Feature", "geometry": {"type": "Point", "coordinates": [21.42464828491211, 41.95479965209961]}, "properties": {"name": "Сопиште чешма-кон кисела вода", "id": 382, "number": "198", "alb_name": "Sopishtë çeshmja"}}, {"type": "Feature", "geometry": {"type": "Point", "coordinates": [21.42454719543457, 41.95482635498047]}, "properties": {"name": "Сопиште чешма-кон добри дол", "id": 383, "number": "199", "alb_name": "Sopishtë çeshmja"}}, {"type": "Feature", "geometry": {"type": "Point", "coordinates": [21.422142028808594, 41.95258712768555]}, "properties": {"name": "Сопиште мулино-кон кисела вода", "id": 384, "number": "200", "alb_name": "Sopishtë mullino"}}, {"type": "Feature", "geometry": {"type": "Point", "coordinates": [21.42190933227539, 41.952125549316406]}, "properties": {"name": "Сопиште мулино-кон добри дол", "id": 385, "number": "201", "alb_name": "Sopishtë mullino"}}, {"type": "Feature", "geometry": {"type": "Point", "coordinates": [21.416749954223633, 41.948341369628906]}, "properties": {"name": "Сопиште т-почетна", "id": 386, "number": "202", "alb_name": "Sopishtë тerminal"}}, {"type": "Feature", "geometry": {"type": "Point", "coordinates": [21.416770935058594, 41.9484977722168]}, "properties": {"name": "Сопиште т-крајна", "id": 387, "number": "203", "alb_name": "Sopishtë тerminal"}}, {"type": "Feature", "geometry": {"type": "Point", "coordinates": [21.430343627929688, 41.9865608215332]}, "properties": {"name": "Црква св.петка-кон центар", "id": 388, "number": "204", "alb_name": "Kisha sveta petka"}}, {"type": "Feature", "geometry": {"type": "Point", "coordinates": [21.43087387084961, 41.986961364746094]}, "properties": {"name": "Црква св.петка-кон црниче", "id": 389, "number": "205", "alb_name": "Kisha sveta petka"}}, {"type": "Feature", "geometry": {"type": "Point", "coordinates": [21.427825927734375, 41.984283447265625]}, "properties": {"name": "Црниче рептил-кон центар", "id": 390, "number": "206", "alb_name": "Cërniçe reptil"}}, {"type": "Feature", "geometry": {"type": "Point", "coordinates": [21.428590774536133, 41.983909606933594]}, "properties": {"name": "Црниче рептил-кон пржино", "id": 391, "number": "207", "alb_name": "Cërniçe reptil"}}, {"type": "Feature", "geometry": {"type": "Point", "coordinates": [21.431686401367188, 41.982421875]}, "properties": {"name": "Црниче-кон центар", "id": 392, "number": "208", "alb_name": "Cërniçe"}}, {"type": "Feature", "geometry": {"type": "Point", "coordinates": [21.431915283203125, 41.981414794921875]}, "properties": {"name": "Црниче-кон пржино", "id": 393, "number": "209", "alb_name": "Cërniçe"}}, {"type": "Feature", "geometry": {"type": "Point", "coordinates": [21.433855056762695, 41.97868728637695]}, "properties": {"name": "Пржино бунар-кон центар", "id": 394, "number": "210", "alb_name": "Përzhino bunar"}}, {"type": "Feature", "geometry": {"type": "Point", "coordinates": [21.432756423950195, 41.97944641113281]}, "properties": {"name": "Пржино бунар-кон т", "id": 395, "number": "211", "alb_name": "Përzhino bunar"}}, {"type": "Feature", "geometry": {"type": "Point", "coordinates": [21.43316650390625, 41.976531982421875]}, "properties": {"name": "Пржино т", "id": 396, "number": "212", "alb_name": "Përzhino тerminal"}}, {"type": "Feature", "geometry": {"type": "Point", "coordinates": [21.426925659179688, 41.99232482910156]}, "properties": {"name": "Тц рамстор", "id": 397, "number": "213", "alb_name": "Tregtare ramstor"}}, {"type": "Feature", "geometry": {"type": "Point", "coordinates": [21.42535400390625, 41.99116516113281]}, "properties": {"name": "Мала станица", "id": 398, "number": "214", "alb_name": "Malla stanica"}}, {"type": "Feature", "geometry": {"type": "Point", "coordinates": [21.429885864257812, 41.990997314453125]}, "properties": {"name": "Стара железничка станица", "id": 399, "number": "215", "alb_name": "Stacioni i vjetër hekurudhor"}}, {"type": "Feature", "geometry": {"type": "Point", "coordinates": [21.430923461914062, 41.988616943359375]}, "properties": {"name": "Јужен булевар", "id": 400, "number": "216", "alb_name": "Bulevardi jugor (juzhen bullevar)"}}, {"type": "Feature", "geometry": {"type": "Point", "coordinates": [21.424413681030273, 41.99251174926758]}, "properties": {"name": "Тутунска банка", "id": 401, "number": "217", "alb_name": "Tutunska banka"}}, {"type": "Feature", "geometry": {"type": "Point", "coordinates": [21.424482345581055, 41.994239807128906]}, "properties": {"name": "Европски универзитет", "id": 402, "number": "218", "alb_name": "Universitetit evropian"}}, {"type": "Feature", "geometry": {"type": "Point", "coordinates": [21.418563842773438, 41.98875427246094]}, "properties": {"name": "Клинички центар т9", "id": 403, "number": "219", "alb_name": "Klinike тerminal 9"}}, {"type": "Feature", "geometry": {"type": "Point", "coordinates": [21.418991088867188, 41.989013671875]}, "properties": {"name": "Клинички центар т50", "id": 404, "number": "220", "alb_name": "Klinike тerminal 50"}}, {"type": "Feature", "geometry": {"type": "Point", "coordinates": [21.419296264648438, 41.989166259765625]}, "properties": {"name": "Клинички центар т3", "id": 405, "number": "221", "alb_name": "Klinike тerminal 3"}}, {"type": "Feature", "geometry": {"type": "Point", "coordinates": [21.419281005859375, 41.989532470703125]}, "properties": {"name": "Клинички центар т-крајна", "id": 406, "number": "222", "alb_name": "Klinike тerminal"}}, {"type": "Feature", "geometry": {"type": "Point", "coordinates": [21.41839599609375, 41.98541259765625]}, "properties": {"name": "Водно полициска станица-кон центар", "id": 407, "number": "223", "alb_name": "Vodno stacioni policor"}}, {"type": "Feature", "geometry": {"type": "Point", "coordinates": [21.418720245361328, 41.9838981628418]}, "properties": {"name": "Водно полициска станица-кон средно водно", "id": 408, "number": "224", "alb_name": "Vodno stacioni policor"}}, {"type": "Feature", "geometry": {"type": "Point", "coordinates": [21.422073364257812, 41.982322692871094]}, "properties": {"name": "Панорама т", "id": 409, "number": "225", "alb_name": "Panorama тerminal"}}, {"type": "Feature", "geometry": {"type": "Point", "coordinates": [21.421297073364258, 41.982948303222656]}, "properties": {"name": "Панорама-кон центар", "id": 410, "number": "226", "alb_name": "Panorama"}}, {"type": "Feature", "geometry": {"type": "Point", "coordinates": [21.420654296875, 41.98309326171875]}, "properties": {"name": "Панорама-кон средно водно", "id": 411, "number": "227", "alb_name": "Panorama"}}, {"type": "Feature", "geometry": {"type": "Point", "coordinates": [21.423974990844727, 41.980079650878906]}, "properties": {"name": "Институт за зи амбасади", "id": 412, "number": "228", "alb_name": "Instituti për inxhinieri sizmike ambasadat"}}, {"type": "Feature", "geometry": {"type": "Point", "coordinates": [21.423599243164062, 41.980194091796875]}, "properties": {"name": "Институт за зи-кон средно водно", "id": 413, "number": "229", "alb_name": "Instituti për inxhinieri sizmike"}}, {"type": "Feature", "geometry": {"type": "Point", "coordinates": [21.408754348754883, 41.975128173828125]}, "properties": {"name": "Средно водно т", "id": 414, "number": "230", "alb_name": "Vodno e mesme (sredno vodno) тerminal"}}, {"type": "Feature", "geometry": {"type": "Point", "coordinates": [21.42041015625, 41.992340087890625]}, "properties": {"name": "Капиштец жито лукс-кон центар", "id": 415, "number": "231", "alb_name": "Kapishtec zhito lluks"}}, {"type": "Feature", "geometry": {"type": "Point", "coordinates": [21.421232223510742, 41.992427825927734]}, "properties": {"name": "Капиштец тц зебра-кон козле", "id": 416, "number": "232", "alb_name": "Kapishtec   tregtare zebra"}}, {"type": "Feature", "geometry": {"type": "Point", "coordinates": [21.4132080078125, 41.99317932128906]}, "properties": {"name": "Агенција за вработување-кон центар", "id": 417, "number": "233", "alb_name": "Agjencia për punësime"}}, {"type": "Feature", "geometry": {"type": "Point", "coordinates": [21.413528442382812, 41.9932861328125]}, "properties": {"name": "Агенција за вработување-кон козле", "id": 418, "number": "234", "alb_name": "Agjencia për punësime"}}, {"type": "Feature", "geometry": {"type": "Point", "coordinates": [21.408367156982422, 41.993377685546875]}, "properties": {"name": "Капиштец црква-кон центар", "id": 419, "number": "235", "alb_name": "Kapishtec kisha"}}, {"type": "Feature", "geometry": {"type": "Point", "coordinates": [21.408958435058594, 41.9936637878418]}, "properties": {"name": "Капиштец црква-кон козле", "id": 420, "number": "236", "alb_name": "Kapishtec kisha"}}, {"type": "Feature", "geometry": {"type": "Point", "coordinates": [21.401016235351562, 41.99383544921875]}, "properties": {"name": "Су лазар танев-кон центар", "id": 421, "number": "237", "alb_name": "Shkolla e mesme llazar tanec"}}, {"type": "Feature", "geometry": {"type": "Point", "coordinates": [21.402084350585938, 41.99400329589844]}, "properties": {"name": "Су лазар танев-кон козле", "id": 422, "number": "238", "alb_name": "Shkolla e mesme llazar tanev"}}, {"type": "Feature", "geometry": {"type": "Point", "coordinates": [21.395431518554688, 41.994781494140625]}, "properties": {"name": "Козле бензинска-кон центар", "id": 423, "number": "239", "alb_name": "Kozlle p. e benzinës"}}, {"type": "Feature", "geometry": {"type": "Point", "coordinates": [21.39386558532715, 41.99534225463867]}, "properties": {"name": "Козле бензинска-кон жданец", "id": 424, "number": "240", "alb_name": "Kozlle p. e benzinës"}}, {"type": "Feature", "geometry": {"type": "Point", "coordinates": [21.384780883789062, 41.99757385253906]}, "properties": {"name": "Козле реплек-кон центар", "id": 425, "number": "241", "alb_name": "Kozlle replek"}}, {"type": "Feature", "geometry": {"type": "Point", "coordinates": [21.38512420654297, 41.99750518798828]}, "properties": {"name": "Козле реплек-кон т", "id": 426, "number": "242", "alb_name": "Kozlle replek"}}, {"type": "Feature", "geometry": {"type": "Point", "coordinates": [21.379196166992188, 41.99864196777344]}, "properties": {"name": "Средно нерези т", "id": 427, "number": "243", "alb_name": "Nerez i mesëm тerminal"}}, {"type": "Feature", "geometry": {"type": "Point", "coordinates": [21.42201042175293, 41.99317932128906]}, "properties": {"name": "Дом на печат т-почетна", "id": 428, "number": "244", "alb_name": "Shtëpia e shtypit тerminal"}}, {"type": "Feature", "geometry": {"type": "Point", "coordinates": [21.42193603515625, 41.99314880371094]}, "properties": {"name": "Дом на печат т-крајна", "id": 429, "number": "245", "alb_name": "Shtëpia e shtypit тerminal"}}, {"type": "Feature", "geometry": {"type": "Point", "coordinates": [21.421466827392578, 41.994850158691406]}, "properties": {"name": "Амсм-кон центар", "id": 430, "number": "246", "alb_name": "Lamm"}}, {"type": "Feature", "geometry": {"type": "Point", "coordinates": [21.42081069946289, 41.99491882324219]}, "properties": {"name": "Амсм-кон ѓорче петров", "id": 431, "number": "247", "alb_name": "Lamm"}}, {"type": "Feature", "geometry": {"type": "Point", "coordinates": [21.416627883911133, 41.994659423828125]}, "properties": {"name": "Католичка црква-кон центар", "id": 432, "number": "248", "alb_name": "Kisha katolike"}}, {"type": "Feature", "geometry": {"type": "Point", "coordinates": [21.416610717773438, 41.99473190307617]}, "properties": {"name": "Католичка црква-кон ѓорче петров", "id": 433, "number": "249", "alb_name": "Kisha katolike"}}, {"type": "Feature", "geometry": {"type": "Point", "coordinates": [21.409996032714844, 41.99560546875]}, "properties": {"name": "Ф-ка треска-кон центар", "id": 434, "number": "250", "alb_name": "Fabrika treska"}}, {"type": "Feature", "geometry": {"type": "Point", "coordinates": [21.409921646118164, 41.99580764770508]}, "properties": {"name": "Ф-ка треска-кон ѓорче петров", "id": 435, "number": "251", "alb_name": "Fabrika treska"}}, {"type": "Feature", "geometry": {"type": "Point", "coordinates": [21.406692504882812, 41.99604034423828]}, "properties": {"name": "Бул.теодосиј гологанов веро-кон центарg", "id": 436, "number": "252", "alb_name": "Bulevardi teodosij golloganov vero"}}, {"type": "Feature", "geometry": {"type": "Point", "coordinates": [21.406869888305664, 41.99616622924805]}, "properties": {"name": "Бул.теодосиј гологанов веро-кон ѓорче g", "id": 437, "number": "253", "alb_name": "Bulevardi teodosij golloganov vero"}}, {"type": "Feature", "geometry": {"type": "Point", "coordinates": [21.401779174804688, 41.99662780761719]}, "properties": {"name": "Ф-ка алумина-кон центар", "id": 438, "number": "254", "alb_name": "Fabrika allumina"}}, {"type": "Feature", "geometry": {"type": "Point", "coordinates": [21.400772094726562, 41.996978759765625]}, "properties": {"name": "Ф-ка алумина-кон ѓорче петров", "id": 439, "number": "255", "alb_name": "Fabrika allumina"}}, {"type": "Feature", "geometry": {"type": "Point", "coordinates": [21.393951416015625, 41.99772644042969]}, "properties": {"name": "Тафталиџе-кон центар", "id": 440, "number": "256", "alb_name": "Taftalixhe"}}, {"type": "Feature", "geometry": {"type": "Point", "coordinates": [21.394027709960938, 41.99794006347656]}, "properties": {"name": "Тафталиџе-кон ѓорче петров", "id": 441, "number": "257", "alb_name": "Taftalixhe"}}, {"type": "Feature", "geometry": {"type": "Point", "coordinates": [21.389785766601562, 41.998260498046875]}, "properties": {"name": "Ст.дом гоце делчев-кон центар", "id": 442, "number": "258", "alb_name": "Konvikti goce dellçev"}}, {"type": "Feature", "geometry": {"type": "Point", "coordinates": [21.390735626220703, 41.99825668334961]}, "properties": {"name": "Ст.дом гоце делчев-кон ѓорче петров", "id": 443, "number": "259", "alb_name": "Konvikti goce dellçev"}}, {"type": "Feature", "geometry": {"type": "Point", "coordinates": [21.391651153564453, 41.999263763427734]}, "properties": {"name": "Сц форца", "id": 444, "number": "260", "alb_name": "Salla e sportit forza"}}, {"type": "Feature", "geometry": {"type": "Point", "coordinates": [21.392257690429688, 42.00242614746094]}, "properties": {"name": "Тафталиџе топлификација т", "id": 445, "number": "261", "alb_name": "Taftalixhe ngrohtore тerminal"}}, {"type": "Feature", "geometry": {"type": "Point", "coordinates": [21.386173248291016, 41.99885177612305]}, "properties": {"name": "Порта козле", "id": 446, "number": "262", "alb_name": "Porta kozlle"}}, {"type": "Feature", "geometry": {"type": "Point", "coordinates": [21.384197235107422, 41.9991340637207]}, "properties": {"name": "Ф-ка реплек-кон центар", "id": 447, "number": "263", "alb_name": "Fabrika replek"}}, {"type": "Feature", "geometry": {"type": "Point", "coordinates": [21.3826847076416, 41.99938201904297]}, "properties": {"name": "Ф-ка реплек-кон ѓорче петров", "id": 448, "number": "264", "alb_name": "Fabrika replek"}}, {"type": "Feature", "geometry": {"type": "Point", "coordinates": [21.378326416015625, 42.00072479248047]}, "properties": {"name": "Хром мост", "id": 449, "number": "265", "alb_name": "Hrom ura"}}, {"type": "Feature", "geometry": {"type": "Point", "coordinates": [21.373748779296875, 42.00352478027344]}, "properties": {"name": "Хром тинекс-кон центар", "id": 450, "number": "266", "alb_name": "Hrom tineks"}}, {"type": "Feature", "geometry": {"type": "Point", "coordinates": [21.374834060668945, 42.00323486328125]}, "properties": {"name": "Хром тинекс-кон ѓорче петров", "id": 451, "number": "267", "alb_name": "Hrom tineks"}}, {"type": "Feature", "geometry": {"type": "Point", "coordinates": [21.369140625, 42.006072998046875]}, "properties": {"name": "Хром влае-кон центар", "id": 452, "number": "268", "alb_name": "Hrom vllae"}}, {"type": "Feature", "geometry": {"type": "Point", "coordinates": [21.368993759155273, 42.00642395019531]}, "properties": {"name": "Хром влае-кон ѓорче петров", "id": 453, "number": "269", "alb_name": "Hrom vllae"}}, {"type": "Feature", "geometry": {"type": "Point", "coordinates": [21.42352294921875, 41.99836730957031]}, "properties": {"name": "Порта буњаковец", "id": 454, "number": "270", "alb_name": "Porta bunjakovec"}}, {"type": "Feature", "geometry": {"type": "Point", "coordinates": [21.423919677734375, 41.99861145019531]}, "properties": {"name": "Соборен храм", "id": 455, "number": "271", "alb_name": "Katedralja"}}, {"type": "Feature", "geometry": {"type": "Point", "coordinates": [21.418716430664062, 41.999359130859375]}, "properties": {"name": "Тц буњаковец", "id": 456, "number": "272", "alb_name": "Tregtare bunjakovec"}}, {"type": "Feature", "geometry": {"type": "Point", "coordinates": [21.418869018554688, 41.99961853027344]}, "properties": {"name": "Градежен факултет", "id": 457, "number": "273", "alb_name": "Fakulteti i ndërtimtarisë"}}, {"type": "Feature", "geometry": {"type": "Point", "coordinates": [21.4117431640625, 42.00080871582031]}, "properties": {"name": "Мал одмор ", "id": 458, "number": "274", "alb_name": "Mall odmor"}}, {"type": "Feature", "geometry": {"type": "Point", "coordinates": [21.411972045898438, 42.001007080078125]}, "properties": {"name": "Симпо", "id": 459, "number": "275", "alb_name": "Simpo"}}, {"type": "Feature", "geometry": {"type": "Point", "coordinates": [21.405853271484375, 42.001617431640625]}, "properties": {"name": "Карпош 2", "id": 460, "number": "276", "alb_name": "Karposh 2"}}, {"type": "Feature", "geometry": {"type": "Point", "coordinates": [21.406051635742188, 42.001739501953125]}, "properties": {"name": "Хотел карпош", "id": 461, "number": "277", "alb_name": "Hotel karposh"}}, {"type": "Feature", "geometry": {"type": "Point", "coordinates": [21.399856567382812, 42.00238037109375]}, "properties": {"name": "Поликлиника букурешт-кон центар", "id": 462, "number": "278", "alb_name": "Poliklinika bukuresht"}}, {"type": "Feature", "geometry": {"type": "Point", "coordinates": [21.400299072265625, 42.00262451171875]}, "properties": {"name": "Поликлиника букурешт-кон влае", "id": 463, "number": "279", "alb_name": "Poliklinika bukuresht"}}, {"type": "Feature", "geometry": {"type": "Point", "coordinates": [21.401779174804688, 42.00416564941406]}, "properties": {"name": "Болница 8ми септември", "id": 464, "number": "280", "alb_name": "Spitali 8 shtatori"}}, {"type": "Feature", "geometry": {"type": "Point", "coordinates": [21.396408081054688, 42.00282287597656]}, "properties": {"name": "Карпош 3 бензинска-кон центар", "id": 465, "number": "281", "alb_name": "Karposh 3 p. e benzinës"}}, {"type": "Feature", "geometry": {"type": "Point", "coordinates": [21.39508056640625, 42.00328826904297]}, "properties": {"name": "Карпош 3 бензинска-кон влае", "id": 466, "number": "282", "alb_name": "Karposh 3 p. e benzinës"}}, {"type": "Feature", "geometry": {"type": "Point", "coordinates": [21.392900466918945, 42.00434875488281]}, "properties": {"name": "Карпош 3 тц сити мол т", "id": 467, "number": "283", "alb_name": "Karposh 3   tregtare siti moll тerminal"}}, {"type": "Feature", "geometry": {"type": "Point", "coordinates": [21.39133071899414, 42.0035400390625]}, "properties": {"name": "Архив на град скопје", "id": 468, "number": "284", "alb_name": "Arkivi i qytetit të shkupit"}}, {"type": "Feature", "geometry": {"type": "Point", "coordinates": [21.391494750976562, 42.003753662109375]}, "properties": {"name": "Тц сити мол", "id": 469, "number": "285", "alb_name": "Tregtare siti moll"}}, {"type": "Feature", "geometry": {"type": "Point", "coordinates": [21.389986038208008, 42.00136947631836]}, "properties": {"name": "Тафталиџе пазар-кон центар", "id": 470, "number": "286", "alb_name": "Taftalixhe pazari"}}, {"type": "Feature", "geometry": {"type": "Point", "coordinates": [21.38969612121582, 42.00132369995117]}, "properties": {"name": "Тафталиџе пазар-кон т", "id": 471, "number": "287", "alb_name": "Taftalixhe pazari"}}, {"type": "Feature", "geometry": {"type": "Point", "coordinates": [21.384475708007812, 42.00148010253906]}, "properties": {"name": "Тафталиџе т", "id": 472, "number": "288", "alb_name": "Taftalixhe тerminal"}}, {"type": "Feature", "geometry": {"type": "Point", "coordinates": [21.39080810546875, 42.00569152832031]}, "properties": {"name": "Карпош 4 тц сити мол т", "id": 473, "number": "289", "alb_name": "Karposh 4   tregtare siti moll"}}, {"type": "Feature", "geometry": {"type": "Point", "coordinates": [21.383987426757812, 42.00456237792969]}, "properties": {"name": "Долно нерези-кон центар", "id": 474, "number": "290", "alb_name": "Nerez i poshtëm"}}, {"type": "Feature", "geometry": {"type": "Point", "coordinates": [21.384735107421875, 42.004730224609375]}, "properties": {"name": "Долно нерези-кон влае", "id": 475, "number": "291", "alb_name": "Nerez i poshtëm"}}, {"type": "Feature", "geometry": {"type": "Point", "coordinates": [21.37419319152832, 42.00702667236328]}, "properties": {"name": "Влае-кон центар", "id": 476, "number": "292", "alb_name": "Vllae"}}, {"type": "Feature", "geometry": {"type": "Point", "coordinates": [21.376571655273438, 42.00660705566406]}, "properties": {"name": "Влае-кон ѓорче петров", "id": 477, "number": "293", "alb_name": "Vllae"}}, {"type": "Feature", "geometry": {"type": "Point", "coordinates": [21.369918823242188, 42.008148193359375]}, "properties": {"name": "Влае порта-кон центар", "id": 478, "number": "294", "alb_name": "Porta vllae"}}, {"type": "Feature", "geometry": {"type": "Point", "coordinates": [21.369903564453125, 42.00840759277344]}, "properties": {"name": "Влае порта-кон ѓорче петров", "id": 479, "number": "295", "alb_name": "Porta vllae"}}, {"type": "Feature", "geometry": {"type": "Point", "coordinates": [21.36651039123535, 42.00569152832031]}, "properties": {"name": "Хром кружен тек", "id": 480, "number": "296", "alb_name": "Hrom rreth rrotullimi"}}, {"type": "Feature", "geometry": {"type": "Point", "coordinates": [21.36772346496582, 42.00504684448242]}, "properties": {"name": "Хром згради-кон центар", "id": 481, "number": "297", "alb_name": "Hrom ndërtesat"}}, {"type": "Feature", "geometry": {"type": "Point", "coordinates": [21.36712646484375, 42.0052490234375]}, "properties": {"name": "Хром згради-кон т", "id": 482, "number": "298", "alb_name": "Hrom ndërtesat"}}, {"type": "Feature", "geometry": {"type": "Point", "coordinates": [21.370025634765625, 42.00404357910156]}, "properties": {"name": "Оу димитар поп георгиев беровски-кон цg", "id": 483, "number": "299", "alb_name": "Shkolla fillore  dimitar pop georgiev berovski"}}, {"type": "Feature", "geometry": {"type": "Point", "coordinates": [21.37042236328125, 42.003692626953125]}, "properties": {"name": "Оу димитар поп георгиев беровски-кон тg", "id": 484, "number": "300", "alb_name": "Shk dimitar pop georgiev berovski"}}, {"type": "Feature", "geometry": {"type": "Point", "coordinates": [21.373428344726562, 42.001495361328125]}, "properties": {"name": "Хром т", "id": 485, "number": "301", "alb_name": "Hrom тerminal"}}, {"type": "Feature", "geometry": {"type": "Point", "coordinates": [21.36343765258789, 42.00664520263672]}, "properties": {"name": "Ѓорче петров стар пазар-кон центар", "id": 486, "number": "302", "alb_name": "Gjorçe petrov pazari i vjetër"}}, {"type": "Feature", "geometry": {"type": "Point", "coordinates": [21.364330291748047, 42.00697326660156]}, "properties": {"name": "Ѓорче петров стар пазар-кон сарај", "id": 487, "number": "303", "alb_name": "Gjorçe petrov pazari i vjetër"}}, {"type": "Feature", "geometry": {"type": "Point", "coordinates": [21.358844757080078, 42.00664520263672]}, "properties": {"name": "Ѓорче петров кино-кон центар", "id": 488, "number": "304", "alb_name": "Gjorçe petrov kinemaja"}}, {"type": "Feature", "geometry": {"type": "Point", "coordinates": [21.359596252441406, 42.006832122802734]}, "properties": {"name": "Ѓорче петров кино-кон сарај", "id": 489, "number": "305", "alb_name": "Gjorçe petrov kinemaja"}}, {"type": "Feature", "geometry": {"type": "Point", "coordinates": [21.354995727539062, 42.006431579589844]}, "properties": {"name": "Југохромски згради-кон центар", "id": 490, "number": "306", "alb_name": "Ndërtesat e jugokromit"}}, {"type": "Feature", "geometry": {"type": "Point", "coordinates": [21.354135513305664, 42.006649017333984]}, "properties": {"name": "Југохромски згради-кон сарај", "id": 491, "number": "307", "alb_name": "Ndërtesat e jugokromit"}}, {"type": "Feature", "geometry": {"type": "Point", "coordinates": [21.351715087890625, 42.0062255859375]}, "properties": {"name": "Општина ѓорче петров-кон центар", "id": 492, "number": "308", "alb_name": "Komuna gjorçe petrov"}}, {"type": "Feature", "geometry": {"type": "Point", "coordinates": [21.34926414489746, 42.00619125366211]}, "properties": {"name": "Општина ѓорче петров-кон сарај", "id": 493, "number": "309", "alb_name": "Komuna gjorçe petrov"}}, {"type": "Feature", "geometry": {"type": "Point", "coordinates": [21.347013473510742, 42.00597381591797]}, "properties": {"name": "Јурија-кон центар", "id": 494, "number": "310", "alb_name": "Јjurija"}}, {"type": "Feature", "geometry": {"type": "Point", "coordinates": [21.343713760375977, 42.00628662109375]}, "properties": {"name": "Јурија-кон сарај", "id": 495, "number": "311", "alb_name": "Jurija"}}, {"type": "Feature", "geometry": {"type": "Point", "coordinates": [21.341033935546875, 42.006866455078125]}, "properties": {"name": "Дексион-кон центар", "id": 496, "number": "312", "alb_name": "Deksion"}}, {"type": "Feature", "geometry": {"type": "Point", "coordinates": [21.33911895751953, 42.00712966918945]}, "properties": {"name": "Дексион -кон сарај", "id": 497, "number": "313", "alb_name": "Deksikon"}}, {"type": "Feature", "geometry": {"type": "Point", "coordinates": [21.340106964111328, 42.00764465332031]}, "properties": {"name": "Ѓорче петров адинг", "id": 498, "number": "314", "alb_name": "Gjorçe petrov ading"}}, {"type": "Feature", "geometry": {"type": "Point", "coordinates": [21.340103149414062, 42.0106201171875]}, "properties": {"name": "Дексион т", "id": 499, "number": "315", "alb_name": "Deksion тerminal"}}, {"type": "Feature", "geometry": {"type": "Point", "coordinates": [21.334447860717773, 42.0068359375]}, "properties": {"name": "Ѓорче петров макпетрол-кон центар", "id": 500, "number": "316", "alb_name": "Gjorçe petrov makpetrol"}}, {"type": "Feature", "geometry": {"type": "Point", "coordinates": [21.334218978881836, 42.00688552856445]}, "properties": {"name": "Ѓорче петров макпетрол-кон сарај", "id": 501, "number": "317", "alb_name": "Gjorçe petrov makpetrol"}}, {"type": "Feature", "geometry": {"type": "Point", "coordinates": [21.3315372467041, 42.00291442871094]}, "properties": {"name": "Сарај рекреативен центар-кон ѓорче петg", "id": 502, "number": "318", "alb_name": "Saraj   rekreative"}}, {"type": "Feature", "geometry": {"type": "Point", "coordinates": [21.331527709960938, 42.00297927856445]}, "properties": {"name": "Сарај рекреативен центар-кон матка", "id": 503, "number": "319", "alb_name": "Saraj   rekreative"}}, {"type": "Feature", "geometry": {"type": "Point", "coordinates": [21.327842712402344, 41.99952697753906]}, "properties": {"name": "Сарај пат за љубин-кон ѓорче петров", "id": 504, "number": "320", "alb_name": "Saraj rruga për lubin"}}, {"type": "Feature", "geometry": {"type": "Point", "coordinates": [21.32861328125, 42.00019836425781]}, "properties": {"name": "Сарај пат за љубин-кон матка", "id": 505, "number": "321", "alb_name": "Saraj rruga për lubin"}}, {"type": "Feature", "geometry": {"type": "Point", "coordinates": [21.325668334960938, 41.99772644042969]}, "properties": {"name": "Сарај т-почетна", "id": 506, "number": "322", "alb_name": "Saraj тerminal"}}, {"type": "Feature", "geometry": {"type": "Point", "coordinates": [21.325639724731445, 41.997886657714844]}, "properties": {"name": "Сарај т-крајна", "id": 507, "number": "323", "alb_name": "Saraj тerminal"}}, {"type": "Feature", "geometry": {"type": "Point", "coordinates": [21.317113876342773, 41.991065979003906]}, "properties": {"name": "Езеро треска-кон сарај", "id": 508, "number": "324", "alb_name": "Liqeni treska"}}, {"type": "Feature", "geometry": {"type": "Point", "coordinates": [21.31698226928711, 41.990821838378906]}, "properties": {"name": "Езеро треска-кон матка", "id": 509, "number": "325", "alb_name": "Liqeni treska"}}, {"type": "Feature", "geometry": {"type": "Point", "coordinates": [21.30777931213379, 41.98155975341797]}, "properties": {"name": "Глумово-кон сарај", "id": 510, "number": "326", "alb_name": "Gllumovë"}}, {"type": "Feature", "geometry": {"type": "Point", "coordinates": [21.30774688720703, 41.98161697387695]}, "properties": {"name": "Глумово-кон матка", "id": 511, "number": "327", "alb_name": "Gllumovë"}}, {"type": "Feature", "geometry": {"type": "Point", "coordinates": [21.30900001525879, 41.9792594909668]}, "properties": {"name": "Шишево т", "id": 512, "number": "328", "alb_name": "Shishevë тerminal"}}, {"type": "Feature", "geometry": {"type": "Point", "coordinates": [21.428556442260742, 41.99826431274414]}, "properties": {"name": "Пошта градски ѕид", "id": 513, "number": "329", "alb_name": "Posta murri i qytetit"}}, {"type": "Feature", "geometry": {"type": "Point", "coordinates": [21.428651809692383, 41.997894287109375]}, "properties": {"name": "Пошта телеком", "id": 514, "number": "330", "alb_name": "Posta telekom"}}, {"type": "Feature", "geometry": {"type": "Point", "coordinates": [21.428436279296875, 41.99949645996094]}, "properties": {"name": "Влада на рм-кон центар", "id": 515, "number": "331", "alb_name": "Qeveria e republika e maqedonisë"}}, {"type": "Feature", "geometry": {"type": "Point", "coordinates": [21.428817749023438, 41.999603271484375]}, "properties": {"name": "Влада на рм-кон влае", "id": 516, "number": "332", "alb_name": "Qeveria e republika e maqedonisë"}}, {"type": "Feature", "geometry": {"type": "Point", "coordinates": [21.42157745361328, 42.002994537353516]}, "properties": {"name": "Дебар маало матично", "id": 517, "number": "333", "alb_name": "Debar mahalla zyra e gjendjes civile"}}, {"type": "Feature", "geometry": {"type": "Point", "coordinates": [21.42270278930664, 42.00252151489258]}, "properties": {"name": "Градски парк фонтана", "id": 518, "number": "334", "alb_name": "Parku i qytetit shatërvani"}}, {"type": "Feature", "geometry": {"type": "Point", "coordinates": [21.41745948791504, 42.004947662353516]}, "properties": {"name": "Зоолошка градина-кон центар", "id": 519, "number": "335", "alb_name": "Kopshti zoologjik"}}, {"type": "Feature", "geometry": {"type": "Point", "coordinates": [21.41650390625, 42.00579833984375]}, "properties": {"name": "Зоолошка градина-кон влае", "id": 520, "number": "336", "alb_name": "Kopshti zoologjik"}}, {"type": "Feature", "geometry": {"type": "Point", "coordinates": [21.41192626953125, 42.00666046142578]}, "properties": {"name": "Гим.орце николов-кон центар", "id": 521, "number": "337", "alb_name": "Gjimnazi orce nikollov"}}, {"type": "Feature", "geometry": {"type": "Point", "coordinates": [21.410654067993164, 42.00688552856445]}, "properties": {"name": "Гим.орце николов-кон влае", "id": 522, "number": "338", "alb_name": "Gjimnazi orce nikollov"}}, {"type": "Feature", "geometry": {"type": "Point", "coordinates": [21.406965255737305, 42.00667953491211]}, "properties": {"name": "Автосалон ми-да", "id": 523, "number": "339", "alb_name": "Autosalloni mida"}}, {"type": "Feature", "geometry": {"type": "Point", "coordinates": [21.404653549194336, 42.007179260253906]}, "properties": {"name": "Базен карпош", "id": 524, "number": "340", "alb_name": "Pishina karposh"}}, {"type": "Feature", "geometry": {"type": "Point", "coordinates": [21.40008544921875, 42.007041931152344]}, "properties": {"name": "Оу лазо трповски", "id": 525, "number": "341", "alb_name": "Shkolla fillore  llazo trpovski"}}, {"type": "Feature", "geometry": {"type": "Point", "coordinates": [21.39814567565918, 42.0075798034668]}, "properties": {"name": "Фк локомотива", "id": 526, "number": "342", "alb_name": "Klubi i futbollit lokomotiva"}}, {"type": "Feature", "geometry": {"type": "Point", "coordinates": [21.394298553466797, 42.00746536254883]}, "properties": {"name": "Ресторан имес-кон центар", "id": 527, "number": "343", "alb_name": "Restoranti imes"}}, {"type": "Feature", "geometry": {"type": "Point", "coordinates": [21.394363403320312, 42.00784683227539]}, "properties": {"name": "Ресторан имес-кон влае", "id": 528, "number": "344", "alb_name": "Restoranti imes"}}, {"type": "Feature", "geometry": {"type": "Point", "coordinates": [21.388978958129883, 42.008174896240234]}, "properties": {"name": "Карпош 4-кон центар", "id": 529, "number": "345", "alb_name": "Karposh 4"}}, {"type": "Feature", "geometry": {"type": "Point", "coordinates": [21.389196395874023, 42.00824737548828]}, "properties": {"name": "Карпош 4-кон влае", "id": 530, "number": "346", "alb_name": "Karposh 4"}}, {"type": "Feature", "geometry": {"type": "Point", "coordinates": [21.383543014526367, 42.00678253173828]}, "properties": {"name": "Стара телевизија-кон центар", "id": 531, "number": "347", "alb_name": "Televizioni i vjetër"}}, {"type": "Feature", "geometry": {"type": "Point", "coordinates": [21.383426666259766, 42.00703430175781]}, "properties": {"name": "Стара телевизија-кон влае", "id": 532, "number": "348", "alb_name": "Televizioni i vjetër"}}, {"type": "Feature", "geometry": {"type": "Point", "coordinates": [21.374771118164062, 42.00630187988281]}, "properties": {"name": "Влае т", "id": 533, "number": "349", "alb_name": "Vllae тerminal"}}, {"type": "Feature", "geometry": {"type": "Point", "coordinates": [21.364669799804688, 42.00968933105469]}, "properties": {"name": "Ѓорче петров пазар-кон волково", "id": 535, "number": "351", "alb_name": "Gjorçe petrov pazari"}}, {"type": "Feature", "geometry": {"type": "Point", "coordinates": [21.36236572265625, 42.00994873046875]}, "properties": {"name": "Ѓорче петров поликлиника", "id": 536, "number": "352", "alb_name": "Gjorçe petrov poliklinika"}}, {"type": "Feature", "geometry": {"type": "Point", "coordinates": [21.357553482055664, 42.016109466552734]}, "properties": {"name": "Касарна даме груев-кон ѓорче петров", "id": 537, "number": "353", "alb_name": "Kazerma dame gruev"}}, {"type": "Feature", "geometry": {"type": "Point", "coordinates": [21.356597900390625, 42.01710510253906]}, "properties": {"name": "Касарна даме груев-кон волково", "id": 538, "number": "354", "alb_name": "Kazerma dame gruev"}}, {"type": "Feature", "geometry": {"type": "Point", "coordinates": [21.353286743164062, 42.01957702636719]}, "properties": {"name": "Оу страшо пинџур-кон ѓорче петров", "id": 539, "number": "355", "alb_name": "Shkolla fillore  strasho pinxhur"}}, {"type": "Feature", "geometry": {"type": "Point", "coordinates": [21.354248046875, 42.01911163330078]}, "properties": {"name": "Оу страшо пинџур-кон волково", "id": 540, "number": "356", "alb_name": "Shk strasho pinxhur"}}, {"type": "Feature", "geometry": {"type": "Point", "coordinates": [21.352035522460938, 42.02079772949219]}, "properties": {"name": "Воен отпад-кон ѓорче петров", "id": 541, "number": "357", "alb_name": "Deponia ushtarake"}}, {"type": "Feature", "geometry": {"type": "Point", "coordinates": [21.351089477539062, 42.0218505859375]}, "properties": {"name": "Воен отпад-кон волково", "id": 542, "number": "358", "alb_name": "Deponia ushtarake"}}, {"type": "Feature", "geometry": {"type": "Point", "coordinates": [21.350818634033203, 42.02555847167969]}, "properties": {"name": "Ново село макпетрол-кон ѓорче петров", "id": 543, "number": "359", "alb_name": "Novo sellë makpetrol"}}, {"type": "Feature", "geometry": {"type": "Point", "coordinates": [21.351455688476562, 42.02569580078125]}, "properties": {"name": "Ново село макпетрол-кон волково", "id": 544, "number": "360", "alb_name": "Novo sellë makpetrol"}}, {"type": "Feature", "geometry": {"type": "Point", "coordinates": [21.353519439697266, 42.02863693237305]}, "properties": {"name": "Ново село-кон ѓорче петров", "id": 545, "number": "361", "alb_name": "Novo sellë"}}, {"type": "Feature", "geometry": {"type": "Point", "coordinates": [21.353628158569336, 42.028221130371094]}, "properties": {"name": "Ново село-кон волково", "id": 546, "number": "362", "alb_name": "Novo sellë"}}, {"type": "Feature", "geometry": {"type": "Point", "coordinates": [21.349119186401367, 42.03080368041992]}, "properties": {"name": "Оу тихомир милошевски-кон ѓорче петровg", "id": 547, "number": "363", "alb_name": "Shkolla fillore  tihomir milloshevski"}}, {"type": "Feature", "geometry": {"type": "Point", "coordinates": [21.34893035888672, 42.03099822998047]}, "properties": {"name": "Оу тихомир милошевски-кон волково", "id": 548, "number": "364", "alb_name": "Shkolla fillore  tihomir milloshevski"}}, {"type": "Feature", "geometry": {"type": "Point", "coordinates": [21.34869384765625, 42.037750244140625]}, "properties": {"name": "Волково шкорпион-кон ѓорче петров", "id": 551, "number": "367", "alb_name": "Vollkovë shkorpion"}}, {"type": "Feature", "geometry": {"type": "Point", "coordinates": [21.348840713500977, 42.03705978393555]}, "properties": {"name": "Волково шкорпион-кон лепенец", "id": 552, "number": "368", "alb_name": "Vollkovë shkorpion"}}, {"type": "Feature", "geometry": {"type": "Point", "coordinates": [21.347488403320312, 42.040374755859375]}, "properties": {"name": "Волково нова населба-кон ѓорче петров", "id": 553, "number": "369", "alb_name": "Vollkovë lagja e re"}}, {"type": "Feature", "geometry": {"type": "Point", "coordinates": [21.347686767578125, 42.040313720703125]}, "properties": {"name": "Волково нова населба-кон лепенец", "id": 554, "number": "370", "alb_name": "Vollkovë lagja e re"}}, {"type": "Feature", "geometry": {"type": "Point", "coordinates": [21.347015380859375, 42.04240417480469]}, "properties": {"name": "Ф-ка скопјанка-кон ѓорче петров", "id": 555, "number": "371", "alb_name": "Fabrika skopjanka"}}, {"type": "Feature", "geometry": {"type": "Point", "coordinates": [21.347152709960938, 42.04267883300781]}, "properties": {"name": "Ф-ка скопјанка-кон лепенец", "id": 556, "number": "372", "alb_name": "Fabrika skopjanka"}}, {"type": "Feature", "geometry": {"type": "Point", "coordinates": [21.346969604492188, 42.045745849609375]}, "properties": {"name": "Волково-кон ѓорче петров", "id": 557, "number": "373", "alb_name": "Vollkovë"}}, {"type": "Feature", "geometry": {"type": "Point", "coordinates": [21.346343994140625, 42.04582214355469]}, "properties": {"name": "Волково-кон лепенец", "id": 558, "number": "374", "alb_name": "Vollkovë"}}, {"type": "Feature", "geometry": {"type": "Point", "coordinates": [21.35003662109375, 42.045021057128906]}, "properties": {"name": "Лепенец 1-кон волково", "id": 559, "number": "375", "alb_name": "Lepenec 1"}}, {"type": "Feature", "geometry": {"type": "Point", "coordinates": [21.35033416748047, 42.04466247558594]}, "properties": {"name": "Лепенец 1-кон т", "id": 560, "number": "376", "alb_name": "Lepenec 1"}}, {"type": "Feature", "geometry": {"type": "Point", "coordinates": [21.353662490844727, 42.04445266723633]}, "properties": {"name": "Лепенец рампа-кон волково", "id": 561, "number": "377", "alb_name": "Lepenec rampa"}}, {"type": "Feature", "geometry": {"type": "Point", "coordinates": [21.353792190551758, 42.044288635253906]}, "properties": {"name": "Лепенец рампа-кон т", "id": 562, "number": "378", "alb_name": "Lepenec rampa"}}, {"type": "Feature", "geometry": {"type": "Point", "coordinates": [21.35772705078125, 42.04463195800781]}, "properties": {"name": "Лепенец 2-кон волково", "id": 563, "number": "379", "alb_name": "Lepenec 2"}}, {"type": "Feature", "geometry": {"type": "Point", "coordinates": [21.35797119140625, 42.04463195800781]}, "properties": {"name": "Лепенец 2-кон т", "id": 564, "number": "380", "alb_name": "Lepenec 2"}}, {"type": "Feature", "geometry": {"type": "Point", "coordinates": [21.364486694335938, 42.0458984375]}, "properties": {"name": "Лепенец т-почетна", "id": 565, "number": "381", "alb_name": "Lepenec т"}}, {"type": "Feature", "geometry": {"type": "Point", "coordinates": [21.36454963684082, 42.04584884643555]}, "properties": {"name": "Лепенец т-крајна", "id": 566, "number": "382", "alb_name": "Lepenec т"}}, {"type": "Feature", "geometry": {"type": "Point", "coordinates": [21.37017822265625, 42.0093994140625]}, "properties": {"name": "Техногас-кон влае", "id": 567, "number": "383", "alb_name": "Tehnogas"}}, {"type": "Feature", "geometry": {"type": "Point", "coordinates": [21.37005615234375, 42.00920104980469]}, "properties": {"name": "Техногас-кон бардовци", "id": 568, "number": "384", "alb_name": "Tehnogas"}}, {"type": "Feature", "geometry": {"type": "Point", "coordinates": [21.375320434570312, 42.01097106933594]}, "properties": {"name": "Влае река лепенец-кон влае", "id": 569, "number": "385", "alb_name": "Vllae lumi lepenec"}}, {"type": "Feature", "geometry": {"type": "Point", "coordinates": [21.375534057617188, 42.01081848144531]}, "properties": {"name": "Влае река лепенец-кон бардовци", "id": 570, "number": "386", "alb_name": "Vllae lumi lepenec"}}, {"type": "Feature", "geometry": {"type": "Point", "coordinates": [21.383773803710938, 42.01429748535156]}, "properties": {"name": "Тв канал 5-кон влае", "id": 571, "number": "387", "alb_name": "Тv kanal 5"}}, {"type": "Feature", "geometry": {"type": "Point", "coordinates": [21.382614135742188, 42.013702392578125]}, "properties": {"name": "Тв канал 5-кон бардовци", "id": 572, "number": "388", "alb_name": "Тv kanal 5"}}, {"type": "Feature", "geometry": {"type": "Point", "coordinates": [21.374881744384766, 42.01673889160156]}, "properties": {"name": "Психијатриска болница бардовци ", "id": 573, "number": "389", "alb_name": "Spitali psikiatrik bardovcë"}}, {"type": "Feature", "geometry": {"type": "Point", "coordinates": [21.390958786010742, 42.013545989990234]}, "properties": {"name": "Злокуќани-кон влае", "id": 574, "number": "390", "alb_name": "Zllokuqanë"}}, {"type": "Feature", "geometry": {"type": "Point", "coordinates": [21.39042854309082, 42.01322937011719]}, "properties": {"name": "Злокуќани-кон бардовци", "id": 575, "number": "391", "alb_name": "Zllokuqanë"}}, {"type": "Feature", "geometry": {"type": "Point", "coordinates": [21.39373016357422, 42.01521682739258]}, "properties": {"name": "Скупи-кон центар", "id": 576, "number": "392", "alb_name": "Skupi"}}, {"type": "Feature", "geometry": {"type": "Point", "coordinates": [21.39383316040039, 42.014949798583984]}, "properties": {"name": "Скупи-кон бардовци", "id": 577, "number": "393", "alb_name": "Skupi"}}, {"type": "Feature", "geometry": {"type": "Point", "coordinates": [21.390932083129883, 42.016204833984375]}, "properties": {"name": "Злокуќани старски дом-кон центар", "id": 578, "number": "394", "alb_name": "Zllokuqanë shtëpia e pleqëve"}}, {"type": "Feature", "geometry": {"type": "Point", "coordinates": [21.39084815979004, 42.016361236572266]}, "properties": {"name": "Злокуќани старски дом-кон бардовци", "id": 579, "number": "395", "alb_name": "Zllokuqanë shtëpia e pleqëve"}}, {"type": "Feature", "geometry": {"type": "Point", "coordinates": [21.385648727416992, 42.02275466918945]}, "properties": {"name": "Бардовци мост-кон центар", "id": 580, "number": "396", "alb_name": "Bardovcë ura"}}, {"type": "Feature", "geometry": {"type": "Point", "coordinates": [21.385711669921875, 42.0228385925293]}, "properties": {"name": "Бардовци мост-кон конак", "id": 581, "number": "397", "alb_name": "Bardovcë ura"}}, {"type": "Feature", "geometry": {"type": "Point", "coordinates": [21.3817138671875, 42.02568054199219]}, "properties": {"name": "Бардовци училиште-кон центар", "id": 582, "number": "398", "alb_name": "Bardovcë shkolla"}}, {"type": "Feature", "geometry": {"type": "Point", "coordinates": [21.382278442382812, 42.02586364746094]}, "properties": {"name": "Бардовци училиште-кон конак", "id": 583, "number": "399", "alb_name": "Bardovcë shkolla"}}, {"type": "Feature", "geometry": {"type": "Point", "coordinates": [21.37811279296875, 42.02537536621094]}, "properties": {"name": "Бардовци игралиште-кон центар", "id": 584, "number": "400", "alb_name": "Bardovcë fusha e sportit"}}, {"type": "Feature", "geometry": {"type": "Point", "coordinates": [21.378387451171875, 42.02537536621094]}, "properties": {"name": "Бардовци игралиште-кон конак", "id": 585, "number": "401", "alb_name": "Bardovcë fusha e sportit"}}, {"type": "Feature", "geometry": {"type": "Point", "coordinates": [21.37521743774414, 42.02596664428711]}, "properties": {"name": "Бардовци-кон центар", "id": 586, "number": "402", "alb_name": "Bardovcë"}}, {"type": "Feature", "geometry": {"type": "Point", "coordinates": [21.37485122680664, 42.02655792236328]}, "properties": {"name": "Бардовци-кон конак", "id": 587, "number": "403", "alb_name": "Bardovcë"}}, {"type": "Feature", "geometry": {"type": "Point", "coordinates": [21.372610092163086, 42.0280876159668]}, "properties": {"name": "Бардовци конак т", "id": 588, "number": "404", "alb_name": "Bardovcë konaku тerminal"}}, {"type": "Feature", "geometry": {"type": "Point", "coordinates": [21.40545082092285, 42.00628662109375]}, "properties": {"name": "Воена болница-кон центар", "id": 589, "number": "405", "alb_name": "Spitali ushtarak"}}, {"type": "Feature", "geometry": {"type": "Point", "coordinates": [21.40582275390625, 42.00579833984375]}, "properties": {"name": "Машински факултет-кон момин поток", "id": 590, "number": "406", "alb_name": "Fakulteti i maqinerisë"}}, {"type": "Feature", "geometry": {"type": "Point", "coordinates": [21.406789779663086, 42.01057434082031]}, "properties": {"name": "Хотел александар палас-кон центар", "id": 591, "number": "407", "alb_name": "Hotel aleksandar palas"}}, {"type": "Feature", "geometry": {"type": "Point", "coordinates": [21.407073974609375, 42.01080322265625]}, "properties": {"name": "Хотел александар палас-кон момин потокg", "id": 592, "number": "408", "alb_name": "Hotel aleksandar palas"}}, {"type": "Feature", "geometry": {"type": "Point", "coordinates": [21.40531349182129, 42.01445007324219]}, "properties": {"name": "Болница систина-кон центар", "id": 593, "number": "409", "alb_name": "Spitali sistina"}}, {"type": "Feature", "geometry": {"type": "Point", "coordinates": [21.40513038635254, 42.01474380493164]}, "properties": {"name": "Болница систина-кон бардовци", "id": 594, "number": "410", "alb_name": "Spitali sistina"}}, {"type": "Feature", "geometry": {"type": "Point", "coordinates": [21.398937225341797, 42.01487731933594]}, "properties": {"name": "Пат за хмз-кон центар", "id": 595, "number": "411", "alb_name": "Rruga për drejtoria për punë hidrometeorologjike"}}, {"type": "Feature", "geometry": {"type": "Point", "coordinates": [21.398353576660156, 42.01493835449219]}, "properties": {"name": "Пат за хмз-кон бардовци", "id": 596, "number": "412", "alb_name": "Rruga për drejtoria për punë hidrometeorologjike"}}, {"type": "Feature", "geometry": {"type": "Point", "coordinates": [21.434844970703125, 41.99345397949219]}, "properties": {"name": "Жена парк", "id": 597, "number": "413", "alb_name": "Parku i gruas"}}, {"type": "Feature", "geometry": {"type": "Point", "coordinates": [21.436538696289062, 41.993988037109375]}, "properties": {"name": "Работнички дом", "id": 598, "number": "414", "alb_name": "Pallati i puntorëve"}}, {"type": "Feature", "geometry": {"type": "Point", "coordinates": [21.438064575195312, 41.997798919677734]}, "properties": {"name": "Мнт", "id": 599, "number": "415", "alb_name": "Teatri popullor maqedonas"}}, {"type": "Feature", "geometry": {"type": "Point", "coordinates": [21.438217163085938, 41.99775695800781]}, "properties": {"name": "Оу св.кирил и методиј", "id": 600, "number": "416", "alb_name": "Shkolla fillore  shëncirili dhe metodi"}}, {"type": "Feature", "geometry": {"type": "Point", "coordinates": [21.432851791381836, 41.999107360839844]}, "properties": {"name": "Мост гоце делчев театар", "id": 602, "number": "418", "alb_name": "Ura goce dellçev teatri"}}, {"type": "Feature", "geometry": {"type": "Point", "coordinates": [21.432777404785156, 41.99946975708008]}, "properties": {"name": "Мост гоце делчев кале", "id": 603, "number": "419", "alb_name": "Ura goce dellçev kalaja"}}, {"type": "Feature", "geometry": {"type": "Point", "coordinates": [21.440505981445312, 41.99626159667969]}, "properties": {"name": "Црква пресвета богородица", "id": 604, "number": "420", "alb_name": "Kisha shën mërija"}}, {"type": "Feature", "geometry": {"type": "Point", "coordinates": [21.440841674804688, 41.99639892578125]}, "properties": {"name": "Ману", "id": 605, "number": "421", "alb_name": "Asham"}}, {"type": "Feature", "geometry": {"type": "Point", "coordinates": [21.440292358398438, 41.99815368652344]}, "properties": {"name": "Национална и универзитетска библиотекаg", "id": 606, "number": "422", "alb_name": "Biblioteka nacionale e universitare"}}, {"type": "Feature", "geometry": {"type": "Point", "coordinates": [21.439960479736328, 42.00074005126953]}, "properties": {"name": "Битпазар 5 тц мавровка", "id": 607, "number": "423", "alb_name": "Bitpazari 5   tregtare mavrovka"}}, {"type": "Feature", "geometry": {"type": "Point", "coordinates": [21.439699172973633, 42.00185012817383]}, "properties": {"name": "Битпазар 4 пазар", "id": 608, "number": "424", "alb_name": "Bitpazari 4 pazari"}}, {"type": "Feature", "geometry": {"type": "Point", "coordinates": [21.440269470214844, 42.000118255615234]}, "properties": {"name": "Битпазар 1 универзитет св.кирил и метоg", "id": 609, "number": "425", "alb_name": "Bitpazari 1 universiteti shën  cirili dhe metodi"}}, {"type": "Feature", "geometry": {"type": "Point", "coordinates": [21.440080642700195, 42.0011100769043]}, "properties": {"name": "Битпазар 2 тц", "id": 610, "number": "426", "alb_name": "Bitpazari 2   tregtare"}}, {"type": "Feature", "geometry": {"type": "Point", "coordinates": [21.439970016479492, 42.0018196105957]}, "properties": {"name": "Битпазар 3 приградски линии", "id": 611, "number": "427", "alb_name": "Bitpazari 3 linjat periferike"}}, {"type": "Feature", "geometry": {"type": "Point", "coordinates": [21.43408203125, 42.00830078125]}, "properties": {"name": "Пластичарска улица-кон автокоманда", "id": 612, "number": "428", "alb_name": "Rruga e plastikës"}}, {"type": "Feature", "geometry": {"type": "Point", "coordinates": [21.434341430664062, 42.00836181640625]}, "properties": {"name": "Пластичарска улица-кон момин поток", "id": 613, "number": "429", "alb_name": "Rruga e pllastikës"}}, {"type": "Feature", "geometry": {"type": "Point", "coordinates": [21.429290771484375, 42.0106315612793]}, "properties": {"name": "Американска амбасада-кон пластичарска", "id": 614, "number": "430", "alb_name": "Ambasada amerikane"}}, {"type": "Feature", "geometry": {"type": "Point", "coordinates": [21.42859649658203, 42.009918212890625]}, "properties": {"name": "Американска амбасада-кон т", "id": 615, "number": "431", "alb_name": "Ambasada amerikane"}}, {"type": "Feature", "geometry": {"type": "Point", "coordinates": [21.431365966796875, 42.00785827636719]}, "properties": {"name": "Француски гробишта-кон пластичарска", "id": 616, "number": "432", "alb_name": "Varrezat franceze"}}, {"type": "Feature", "geometry": {"type": "Point", "coordinates": [21.432022094726562, 42.00712585449219]}, "properties": {"name": "Француски гробишта-кон т", "id": 617, "number": "433", "alb_name": "Varrezat franceze"}}, {"type": "Feature", "geometry": {"type": "Point", "coordinates": [21.433570861816406, 42.00352096557617]}, "properties": {"name": "Музеј на современа уметност т", "id": 618, "number": "434", "alb_name": "Muzeu i artit bashkëkohorë тerminal"}}, {"type": "Feature", "geometry": {"type": "Point", "coordinates": [21.431228637695312, 42.013824462890625]}, "properties": {"name": "Топанско поле пластичарска-кон центар", "id": 619, "number": "435", "alb_name": "Fushë tophane rruga e pllastikës"}}, {"type": "Feature", "geometry": {"type": "Point", "coordinates": [21.431360244750977, 42.01403045654297]}, "properties": {"name": "Топанско поле пластичарска-кон шуто орg", "id": 620, "number": "436", "alb_name": "Fushë tophane rruga e pllastikës"}}, {"type": "Feature", "geometry": {"type": "Point", "coordinates": [21.430810928344727, 42.019012451171875]}, "properties": {"name": "Топанско поле бензинска-кон центар", "id": 621, "number": "437", "alb_name": "Fushë tophane p.e benzinës"}}, {"type": "Feature", "geometry": {"type": "Point", "coordinates": [21.430797576904297, 42.018680572509766]}, "properties": {"name": "Топанско поле бензинска-кон шуто оризаg", "id": 622, "number": "438", "alb_name": "Fushë tophane p.e benzinës"}}, {"type": "Feature", "geometry": {"type": "Point", "coordinates": [21.430313110351562, 42.02207946777344]}, "properties": {"name": "Топанско поле крстосница-кон центар", "id": 623, "number": "439", "alb_name": "Fushë tophane udhëkryqi"}}, {"type": "Feature", "geometry": {"type": "Point", "coordinates": [21.430580139160156, 42.02180862426758]}, "properties": {"name": "Топанско поле крстосница-кон шуто оризg", "id": 624, "number": "440", "alb_name": "Fushë tophane udhëkryqi"}}, {"type": "Feature", "geometry": {"type": "Point", "coordinates": [21.4432373046875, 42.008514404296875]}, "properties": {"name": "Јаја паша џамија-кон центар", "id": 625, "number": "441", "alb_name": "Xhamia e jaja pashës"}}, {"type": "Feature", "geometry": {"type": "Point", "coordinates": [21.443588256835938, 42.008697509765625]}, "properties": {"name": "Јаја паша џамија-кон бутел", "id": 626, "number": "442", "alb_name": "Xhamia e jaja pashës"}}, {"type": "Feature", "geometry": {"type": "Point", "coordinates": [21.445270538330078, 42.013206481933594]}, "properties": {"name": "Чаир-кон центар", "id": 627, "number": "443", "alb_name": "Çair"}}, {"type": "Feature", "geometry": {"type": "Point", "coordinates": [21.4449462890625, 42.011837005615234]}, "properties": {"name": "Чаир-кон бутел", "id": 628, "number": "444", "alb_name": "Çair"}}, {"type": "Feature", "geometry": {"type": "Point", "coordinates": [21.43855094909668, 42.01340866088867]}, "properties": {"name": "Гим.цветан димов-кон центар", "id": 629, "number": "445", "alb_name": "Gjimnazi cvetan dimov"}}, {"type": "Feature", "geometry": {"type": "Point", "coordinates": [21.438413619995117, 42.013389587402344]}, "properties": {"name": "Гим.цветан димов-кон топанско поле", "id": 630, "number": "446", "alb_name": "Gjimnazi cvetan dimov"}}, {"type": "Feature", "geometry": {"type": "Point", "coordinates": [21.43553352355957, 42.013084411621094]}, "properties": {"name": "Дом за стари-кон центар", "id": 631, "number": "447", "alb_name": "Shtëpia e pleqëve"}}, {"type": "Feature", "geometry": {"type": "Point", "coordinates": [21.435012817382812, 42.013580322265625]}, "properties": {"name": "Дом за стари-кон топанско поле", "id": 632, "number": "448", "alb_name": "Shtëpia e pleqëve"}}, {"type": "Feature", "geometry": {"type": "Point", "coordinates": [21.434432983398438, 42.01667785644531]}, "properties": {"name": "Стара деветка-кон центар", "id": 633, "number": "449", "alb_name": "Nëndëshi i vjetër"}}, {"type": "Feature", "geometry": {"type": "Point", "coordinates": [21.4346923828125, 42.01625061035156]}, "properties": {"name": "Стара деветка-кон топанско поле", "id": 634, "number": "450", "alb_name": "Nëndëshi i vjetër"}}, {"type": "Feature", "geometry": {"type": "Point", "coordinates": [21.432430267333984, 42.0194206237793]}, "properties": {"name": "Топанско поле банка-кон центар", "id": 635, "number": "451", "alb_name": "Fushë tophanë banka"}}, {"type": "Feature", "geometry": {"type": "Point", "coordinates": [21.432525634765625, 42.01887512207031]}, "properties": {"name": "Топанско поле банка-кон т", "id": 636, "number": "452", "alb_name": "Fushë tophanë banka"}}, {"type": "Feature", "geometry": {"type": "Point", "coordinates": [21.433944702148438, 42.02146911621094]}, "properties": {"name": "Топанско поле т-кон центар", "id": 637, "number": "453", "alb_name": "Fushë tophanë тerminal"}}, {"type": "Feature", "geometry": {"type": "Point", "coordinates": [21.434341430664062, 42.02110290527344]}, "properties": {"name": "Топанско поле т-кон шуто оризари", "id": 638, "number": "454", "alb_name": "Fushë tophanë тerminal"}},